var organizaciones = {
    "type": "FeatureCollection",
    "features": [
{"geometry": {"type": "Point", "coordinates": [-6.0113321, 37.3812562]}, "type": "Feature", "properties": {"CIF": null, "Telefonos": null, "Actividad": null, "Direccion": "AVDA DE CORIA 10  41010", "Tipo_Entidad": "Fundación", "Nombre": "Congregación de hermanas de nuestra señora de la consolación", "Mail": null, "Distrito": "TRIANA", "Clasificacion_Entidad": null, "Socios": null, "Ciudad": "Sevilla"}},
{"geometry": {"type": "Point", "coordinates": [-5.9846768, 37.36958509999999]}, "type": "Feature", "properties": {"CIF": null, "Telefonos": "954 619158", "Actividad": null, "Direccion": "COLOMBIA 2  41013", "Tipo_Entidad": "Fundación", "Nombre": "Fundacción internacional de solidaridad compañía de maría (f.i.s.c.)", "Mail": null, "Distrito": "SUR", "Clasificacion_Entidad": null, "Socios": null, "Ciudad": "Sevilla"}},
{"geometry": {"type": "Point", "coordinates": [-5.9797001, 37.3716195]}, "type": "Feature", "properties": {"CIF": "G41405598", "Telefonos": null, "Actividad": null, "Direccion": "AVDA. FELIPE II 32 - 10º- 3 41013", "Tipo_Entidad": "Fundación", "Nombre": "Fundación  prodean", "Mail": null, "Distrito": "SUR", "Clasificacion_Entidad": null, "Socios": null, "Ciudad": "Sevilla"}},
{"geometry": {"type": "Point", "coordinates": [-5.9989488, 37.3911385]}, "type": "Feature", "properties": {"CIF": null, "Telefonos": null, "Actividad": null, "Direccion": "BAILÉN 20 -22 41001", "Tipo_Entidad": "Fundación", "Nombre": "Fundación 'josé manuel lara'", "Mail": null, "Distrito": "CASCO ANTIGUO", "Clasificacion_Entidad": null, "Socios": null, "Ciudad": "Sevilla"}},
{"geometry": {"type": "Point", "coordinates": [-5.9896087, 37.3931235]}, "type": "Feature", "properties": {"CIF": "G79963237", "Telefonos": "954313344 954313333", "Actividad": null, "Direccion": "DOÑA MARÍA CORONEL 14  41003", "Tipo_Entidad": "Fundación", "Nombre": "Fundación accem", "Mail": null, "Distrito": "CASCO ANTIGUO", "Clasificacion_Entidad": null, "Socios": null, "Ciudad": "Sevilla"}},
{"geometry": {"type": "Point", "coordinates": [-5.9830865, 37.378502]}, "type": "Feature", "properties": {"CIF": "G81164105", "Telefonos": null, "Actividad": null, "Direccion": "PZA. AVIADOR RUIZ DE ALDA, 11  41004", "Tipo_Entidad": "Fundación", "Nombre": "Fundación acción contra el hambre", "Mail": null, "Distrito": "SUR", "Clasificacion_Entidad": null, "Socios": null, "Ciudad": "Sevilla"}},
{"geometry": {"type": "Point", "coordinates": [-5.9782594, 37.3755112]}, "type": "Feature", "properties": {"CIF": "G82382987", "Telefonos": "677.988.663 954280275", "Actividad": null, "Direccion": "AVDA. RAMÓN CARANDE 3  41013", "Tipo_Entidad": "Fundación", "Nombre": "Fundación adecco.", "Mail": null, "Distrito": "SUR", "Clasificacion_Entidad": null, "Socios": null, "Ciudad": "Sevilla"}},
{"geometry": {"type": "Point", "coordinates": [-5.9745498, 37.38742939999999]}, "type": "Feature", "properties": {"CIF": "G82262932", "Telefonos": "690 800 870", "Actividad": null, "Direccion": "CÉFIRO, 2  41018", "Tipo_Entidad": "Fundación", "Nombre": "Fundación adra", "Mail": null, "Distrito": "NERVION", "Clasificacion_Entidad": null, "Socios": null, "Ciudad": "Sevilla"}},
{"geometry": {"type": "Point", "coordinates": [-5.986394, 37.4036998]}, "type": "Feature", "properties": {"CIF": "N2041048F", "Telefonos": "954-901652", "Actividad": null, "Direccion": "FERNÁN SÁNCHEZ DE TOVAR 4 - 2º E 41009", "Tipo_Entidad": "Fundación", "Nombre": "Fundación al-idrisi hispano-marroquí", "Mail": null, "Distrito": "MACARENA", "Clasificacion_Entidad": null, "Socios": null, "Ciudad": "Sevilla"}},
{"geometry": {"type": "Point", "coordinates": [-6.0011975, 37.3896996]}, "type": "Feature", "properties": {"CIF": "G41896119", "Telefonos": null, "Actividad": null, "Direccion": "MARQUÉS DE PARADAS 26 1- 3º B 41001", "Tipo_Entidad": "Fundación", "Nombre": "Fundación aljaraque", "Mail": null, "Distrito": "CASCO ANTIGUO", "Clasificacion_Entidad": null, "Socios": null, "Ciudad": "Sevilla"}},
{"geometry": {"type": "Point", "coordinates": [-6.0001155, 37.3982595]}, "type": "Feature", "properties": {"CIF": null, "Telefonos": null, "Actividad": null, "Direccion": "EDUARDO CANO 12 - BAJO 41002", "Tipo_Entidad": "Fundación", "Nombre": "Fundación alternativa", "Mail": null, "Distrito": "CASCO ANTIGUO", "Clasificacion_Entidad": null, "Socios": null, "Ciudad": "Sevilla"}},
{"geometry": {"type": "Point", "coordinates": [-5.9831445, 37.3703484]}, "type": "Feature", "properties": {"CIF": null, "Telefonos": null, "Actividad": null, "Direccion": "FRANCISCO GUERRERO 6 BAJO A 41013", "Tipo_Entidad": "Fundación", "Nombre": "Fundación altius mano amiga.", "Mail": null, "Distrito": "SUR", "Clasificacion_Entidad": null, "Socios": null, "Ciudad": "Sevilla"}},
{"geometry": {"type": "Point", "coordinates": [-5.9644067, 37.4239679]}, "type": "Feature", "properties": {"CIF": "G45512993", "Telefonos": "856.171.171 856.072.625 636.168.057", "Actividad": null, "Direccion": "C/ TEJEDORAS, 5 - 6º C 41015", "Tipo_Entidad": "Fundación", "Nombre": "Fundación anaed", "Mail": null, "Distrito": "NORTE", "Clasificacion_Entidad": null, "Socios": null, "Ciudad": "Sevilla"}},
{"geometry": {"type": "Point", "coordinates": [-5.9965608, 37.3902041]}, "type": "Feature", "properties": {"CIF": null, "Telefonos": null, "Actividad": null, "Direccion": "ROSARIO 16  41001", "Tipo_Entidad": "Fundación", "Nombre": "Fundacion andaluza de tauromaquia", "Mail": null, "Distrito": "CASCO ANTIGUO", "Clasificacion_Entidad": null, "Socios": null, "Ciudad": "Sevilla"}},
{"geometry": {"type": "Point", "coordinates": [-5.9868378, 37.40325]}, "type": "Feature", "properties": {"CIF": "G91233346", "Telefonos": null, "Actividad": null, "Direccion": "FROILÁN DE LA SERNA 4 -6 41009", "Tipo_Entidad": "Fundación", "Nombre": "Fundación andaluza para la cooperación y el desarrollo '4 de diciembre'.", "Mail": null, "Distrito": "MACARENA", "Clasificacion_Entidad": null, "Socios": null, "Ciudad": "Sevilla"}},
{"geometry": {"type": "Point", "coordinates": [-6.0042332, 37.3769512]}, "type": "Feature", "properties": {"CIF": "G79812517", "Telefonos": "954 444 484", "Actividad": null, "Direccion": "AVDA. REPUBLICA ARGENTINA, 46 -9º D 41010", "Tipo_Entidad": "Fundación", "Nombre": "Fundacion ande", "Mail": null, "Distrito": "ESTE", "Clasificacion_Entidad": null, "Socios": null, "Ciudad": "Sevilla"}},
{"geometry": {"type": "Point", "coordinates": [-5.966457999999999, 37.3671482]}, "type": "Feature", "properties": {"CIF": "G84392810", "Telefonos": "954900293 914478450 914479997", "Actividad": null, "Direccion": "AVDA. DE LA PAZ, S/N  41013", "Tipo_Entidad": "Fundación", "Nombre": "Fundación atenea grupo gid", "Mail": null, "Distrito": "SUR", "Clasificacion_Entidad": null, "Socios": null, "Ciudad": "Sevilla"}},
{"geometry": {"type": "Point", "coordinates": [-5.9992047, 37.3988681]}, "type": "Feature", "properties": {"CIF": "G91088468", "Telefonos": "954 909 822 677 842 412 677 842 412", "Actividad": null, "Direccion": "C/ NARCISO BONAPLATA, 5  41002", "Tipo_Entidad": "Fundación", "Nombre": "Fundación benéfico asistencial 'casco antiguo'", "Mail": null, "Distrito": "CASCO ANTIGUO", "Clasificacion_Entidad": null, "Socios": null, "Ciudad": "Sevilla"}},
{"geometry": {"type": "Point", "coordinates": [-5.9888403, 37.4082791]}, "type": "Feature", "properties": {"CIF": null, "Telefonos": null, "Actividad": null, "Direccion": "PZA. DOCTOR BARRAQUER 2 - 4º A 41009", "Tipo_Entidad": "Fundación", "Nombre": "Fundación- benéfico asistencial pura 'afim'", "Mail": null, "Distrito": "MACARENA", "Clasificacion_Entidad": null, "Socios": null, "Ciudad": "Sevilla"}},
{"geometry": {"type": "Point", "coordinates": [-6.0081962, 37.3836474]}, "type": "Feature", "properties": {"CIF": "G91005157", "Telefonos": null, "Actividad": null, "Direccion": "PLAZA DEL ZURRAQUE 8  41010", "Tipo_Entidad": "Fundación", "Nombre": "Fundación benéfico asistencial triana-los remedios", "Mail": null, "Distrito": "TRIANA", "Clasificacion_Entidad": null, "Socios": null, "Ciudad": "Sevilla"}},
{"geometry": {"type": "Point", "coordinates": [-5.966026299999999, 37.3264444]}, "type": "Feature", "properties": {"CIF": "G82765678", "Telefonos": null, "Actividad": null, "Direccion": "JEREZ, AV. 106 2º D 41014", "Tipo_Entidad": "Fundación", "Nombre": "Fundación benjamín mehnert", "Mail": null, "Distrito": "BELLAVISTA-LA PALMERA", "Clasificacion_Entidad": null, "Socios": null, "Ciudad": "Sevilla"}},
{"geometry": {"type": "Point", "coordinates": [-5.9922464, 37.3861225]}, "type": "Feature", "properties": {"CIF": "R4100442E", "Telefonos": "954225552 954221311", "Actividad": null, "Direccion": "PLAZA VIRGEN DE LOS REYES  S/N. 41004", "Tipo_Entidad": "Fundación", "Nombre": "Fundación cardenal spínola de lucha contra el paro.", "Mail": null, "Distrito": "CASCO ANTIGUO", "Clasificacion_Entidad": null, "Socios": null, "Ciudad": "Sevilla"}},
{"geometry": {"type": "Point", "coordinates": [-6.01028, 37.3896003]}, "type": "Feature", "properties": {"CIF": "G41526781", "Telefonos": "954 347 410 954 347 412", "Actividad": null, "Direccion": "VIRGEN DE PATROCINIO 2  41010", "Tipo_Entidad": "Fundación", "Nombre": "Fundacion centro español de solidaridad proyecto hombre", "Mail": null, "Distrito": "TRIANA", "Clasificacion_Entidad": null, "Socios": null, "Ciudad": "Sevilla"}},
{"geometry": {"type": "Point", "coordinates": [-5.990068399999999, 37.3962218]}, "type": "Feature", "properties": {"CIF": "G41653718", "Telefonos": null, "Actividad": null, "Direccion": "CASTELLAR 42  41003", "Tipo_Entidad": "Fundación", "Nombre": "Fundación centro internac. médico para migrantes y extranjeros.", "Mail": null, "Distrito": "CASCO ANTIGUO", "Clasificacion_Entidad": null, "Socios": null, "Ciudad": "Sevilla"}},
{"geometry": {"type": "Point", "coordinates": [-5.996575, 37.3879293]}, "type": "Feature", "properties": {"CIF": null, "Telefonos": null, "Actividad": null, "Direccion": "ZARAGOZA 58  41001", "Tipo_Entidad": "Fundación", "Nombre": "Fundacion centro orient. familiar virgen de los reyes", "Mail": null, "Distrito": "CASCO ANTIGUO", "Clasificacion_Entidad": null, "Socios": null, "Ciudad": "Sevilla"}},
{"geometry": {"type": "Point", "coordinates": [-5.9631542, 37.3730514]}, "type": "Feature", "properties": {"CIF": "G73600553", "Telefonos": "687 100 869 954 908 138", "Actividad": null, "Direccion": "C/ ARAGÓN, 5  41006", "Tipo_Entidad": "Fundación", "Nombre": "Fundacion cepaim accion integral con inmigrantes", "Mail": null, "Distrito": "CERRO-AMATE", "Clasificacion_Entidad": null, "Socios": null, "Ciudad": "Sevilla"}},
{"geometry": {"type": "Point", "coordinates": [-6.00271, 37.37773]}, "type": "Feature", "properties": {"CIF": null, "Telefonos": null, "Actividad": null, "Direccion": "AVDA. REPÚBLICA ARGENTINA 28 - 8º B 41010", "Tipo_Entidad": "Fundación", "Nombre": "Fundación codespa", "Mail": null, "Distrito": "TRIANA", "Clasificacion_Entidad": null, "Socios": null, "Ciudad": "Sevilla"}},
{"geometry": {"type": "Point", "coordinates": [-5.9937492, 37.38409540000001]}, "type": "Feature", "properties": {"CIF": "G91345132", "Telefonos": "954500334 954500301", "Actividad": null, "Direccion": "SANTO TOMÁS 17  41001", "Tipo_Entidad": "Fundación", "Nombre": "Fundación contsa", "Mail": null, "Distrito": "CASCO ANTIGUO", "Clasificacion_Entidad": null, "Socios": null, "Ciudad": "Sevilla"}},
{"geometry": {"type": "Point", "coordinates": [-5.9783811, 37.389435]}, "type": "Feature", "properties": {"CIF": "G91802686", "Telefonos": null, "Actividad": null, "Direccion": "C/ LÍCTORES, 20 - BAJO. 41018", "Tipo_Entidad": "Fundación", "Nombre": "Fundacion cuidar en casa", "Mail": null, "Distrito": "NERVION", "Clasificacion_Entidad": null, "Socios": null, "Ciudad": "Sevilla"}},
{"geometry": {"type": "Point", "coordinates": [-5.9472615, 37.3775378]}, "type": "Feature", "properties": {"CIF": null, "Telefonos": null, "Actividad": null, "Direccion": "EVA CERVANTES 13  41012", "Tipo_Entidad": "Fundación", "Nombre": "Fundación cultural privada  cultura andaluza", "Mail": null, "Distrito": "CERRO-AMATE", "Clasificacion_Entidad": null, "Socios": null, "Ciudad": "Sevilla"}},
{"geometry": {"type": "Point", "coordinates": [-5.99991, 37.37856]}, "type": "Feature", "properties": {"CIF": null, "Telefonos": null, "Actividad": null, "Direccion": "AVDA. REPÚBLICA ARGENTINA 13 - ACC B- PTA. 6 41011", "Tipo_Entidad": "Fundación", "Nombre": "Fundación de ayuda contra la drogadicción (f.a.d.)", "Mail": null, "Distrito": "LOS REMEDIOS", "Clasificacion_Entidad": null, "Socios": null, "Ciudad": "Sevilla"}},
{"geometry": {"type": "Point", "coordinates": [-5.953069999999999, 37.39493]}, "type": "Feature", "properties": {"CIF": null, "Telefonos": null, "Actividad": null, "Direccion": "ALVAR NÚÑEZ CABEZA DE VACA 6  41007", "Tipo_Entidad": "Fundación", "Nombre": "Fundación de ayuda docente y laboral para la integración del discapacitado. (f.a.l.d.i.d.)", "Mail": null, "Distrito": "SAN PABLO-SANTA JUSTA", "Clasificacion_Entidad": null, "Socios": null, "Ciudad": "Sevilla"}},
{"geometry": {"type": "Point", "coordinates": [-5.9774881, 37.3687128]}, "type": "Feature", "properties": {"CIF": "G78671245", "Telefonos": null, "Actividad": null, "Direccion": "RAMIREZ DE BUSTAMANTE, 2 - BAJO 41013", "Tipo_Entidad": "Fundación", "Nombre": "Fundación del valle", "Mail": null, "Distrito": "SUR", "Clasificacion_Entidad": null, "Socios": null, "Ciudad": "Sevilla"}},
{"geometry": {"type": "Point", "coordinates": [-5.9188414, 37.3875889]}, "type": "Feature", "properties": {"CIF": "V91919563", "Telefonos": "659 234 975 954 406 564", "Actividad": null, "Direccion": "C/ BALOMPIÉ, 6  41020", "Tipo_Entidad": "Fundación", "Nombre": "Fundación delgado montiel", "Mail": null, "Distrito": "ESTE", "Clasificacion_Entidad": null, "Socios": null, "Ciudad": "Sevilla"}},
{"geometry": {"type": "Point", "coordinates": [-5.9726246, 37.3732248]}, "type": "Feature", "properties": {"CIF": null, "Telefonos": null, "Actividad": null, "Direccion": "ALCALDE JUAN FERNÁNDEZ 31 BAJO 41005", "Tipo_Entidad": "Fundación", "Nombre": "Fundación dif ( desarrollo integral de la familia)", "Mail": null, "Distrito": "SUR", "Clasificacion_Entidad": null, "Socios": null, "Ciudad": "Sevilla"}},
{"geometry": {"type": "Point", "coordinates": [-5.9819847, 37.3957775]}, "type": "Feature", "properties": {"CIF": "G91045930", "Telefonos": "954 543251", "Actividad": null, "Direccion": "SALESIANOS 1 B 41003", "Tipo_Entidad": "Fundación", "Nombre": "Fundación don bosco", "Mail": null, "Distrito": "SAN PABLO-SANTA JUSTA", "Clasificacion_Entidad": null, "Socios": null, "Ciudad": "Sevilla"}},
{"geometry": {"type": "Point", "coordinates": [-5.982084299999999, 37.3508738]}, "type": "Feature", "properties": {"CIF": "G91167445", "Telefonos": "954 708 170  654627075", "Actividad": null, "Direccion": "AVDA DE ITALIA 9 G  41012", "Tipo_Entidad": "Fundación", "Nombre": "Fundación doña maría fundomar", "Mail": null, "Distrito": "BELLAVISTA-LA PALMERA", "Clasificacion_Entidad": null, "Socios": null, "Ciudad": "Sevilla"}},
{"geometry": {"type": "Point", "coordinates": [-5.9831445, 37.3703484]}, "type": "Feature", "properties": {"CIF": "G85167112", "Telefonos": "6074311155 914456149", "Actividad": null, "Direccion": "FRANCISCO GUERRERO 6 BAJO A 41013", "Tipo_Entidad": "Fundación", "Nombre": "Fundación ecyd", "Mail": null, "Distrito": "SUR", "Clasificacion_Entidad": null, "Socios": null, "Ciudad": "Sevilla"}},
{"geometry": {"type": "Point", "coordinates": [-5.99203, 37.4020296]}, "type": "Feature", "properties": {"CIF": "G60541554", "Telefonos": "627.559.434 933.001.101", "Actividad": null, "Direccion": "C/ FERIA, 151 - BAJO 41002", "Tipo_Entidad": "Fundación", "Nombre": "Fundación educación y cooperación", "Mail": null, "Distrito": "CASCO ANTIGUO", "Clasificacion_Entidad": null, "Socios": null, "Ciudad": "Sevilla"}},
{"geometry": {"type": "Point", "coordinates": [-5.9775158, 37.3478454]}, "type": "Feature", "properties": {"CIF": "G41938077", "Telefonos": null, "Actividad": null, "Direccion": "DRESDE 2  41012", "Tipo_Entidad": "Fundación", "Nombre": "Fundacion empresa social", "Mail": null, "Distrito": "BELLAVISTA-LA PALMERA", "Clasificacion_Entidad": null, "Socios": null, "Ciudad": "Sevilla"}},
{"geometry": {"type": "Point", "coordinates": [-5.9727522, 37.4216637]}, "type": "Feature", "properties": {"CIF": "G31825284", "Telefonos": "954 950 153 605575473", "Actividad": null, "Direccion": "C/ PARQUE SIERRA NORTE, 1 - PORTAL 1-BAJO J. 41015", "Tipo_Entidad": "Fundación", "Nombre": "Fundación enrique de osso (fundeo)", "Mail": null, "Distrito": "NORTE", "Clasificacion_Entidad": null, "Socios": null, "Ciudad": "Sevilla"}},
{"geometry": {"type": "Point", "coordinates": [-5.994225, 37.398744]}, "type": "Feature", "properties": {"CIF": "G91242511", "Telefonos": "954.812.115 691.424.807", "Actividad": null, "Direccion": "PZA. ALAMEDA DE HÉRCULES, 32 -33 41002", "Tipo_Entidad": "Fundación", "Nombre": "Fundación escuela andaluza de economía social", "Mail": null, "Distrito": "CASCO ANTIGUO", "Clasificacion_Entidad": null, "Socios": null, "Ciudad": "Sevilla"}},
{"geometry": {"type": "Point", "coordinates": [-6.0020566, 37.3736412]}, "type": "Feature", "properties": {"CIF": "G41584426", "Telefonos": null, "Actividad": null, "Direccion": "VIRGEN DEL AGUILA 4 - BAJO 41011", "Tipo_Entidad": "Fundación", "Nombre": "Fundacion escuela superior de las ciencias espirituales", "Mail": null, "Distrito": "LOS REMEDIOS", "Clasificacion_Entidad": null, "Socios": null, "Ciudad": "Sevilla"}},
{"geometry": {"type": "Point", "coordinates": [-5.9573497, 37.3864089]}, "type": "Feature", "properties": {"CIF": "G23633266", "Telefonos": null, "Actividad": null, "Direccion": "JILGUERO 21 B 41006", "Tipo_Entidad": "Fundación", "Nombre": "Fundacion escuelas profesionales de la sagrada familia.safa", "Mail": null, "Distrito": "CERRO-AMATE", "Clasificacion_Entidad": null, "Socios": null, "Ciudad": "Sevilla"}},
{"geometry": {"type": "Point", "coordinates": [-5.991289999999999, 37.38857]}, "type": "Feature", "properties": {"CIF": "G41945320", "Telefonos": null, "Actividad": null, "Direccion": "MANUEL ROJAS MARCOS 6  41004", "Tipo_Entidad": "Fundación", "Nombre": "Fundacion gota de leche", "Mail": null, "Distrito": "CASCO ANTIGUO", "Clasificacion_Entidad": null, "Socios": null, "Ciudad": "Sevilla"}},
{"geometry": {"type": "Point", "coordinates": [-5.9293308, 37.4072872]}, "type": "Feature", "properties": {"CIF": "G91891564", "Telefonos": null, "Actividad": null, "Direccion": "ALMENDRALEJO 5  41019", "Tipo_Entidad": "Fundación", "Nombre": "Fundación grupo azvi", "Mail": null, "Distrito": "ESTE", "Clasificacion_Entidad": null, "Socios": null, "Ciudad": "Sevilla"}},
{"geometry": {"type": "Point", "coordinates": [-5.9932193, 37.3829734]}, "type": "Feature", "properties": {"CIF": "G91154021", "Telefonos": "954 215927 649662782", "Actividad": null, "Direccion": "SAN GREGORIO 26  41004", "Tipo_Entidad": "Fundación", "Nombre": "Fundación hermandades del viernes santo tarde", "Mail": null, "Distrito": "CASCO ANTIGUO", "Clasificacion_Entidad": null, "Socios": null, "Ciudad": "Sevilla"}},
{"geometry": {"type": "Point", "coordinates": [-5.98206, 37.3637299]}, "type": "Feature", "properties": {"CIF": null, "Telefonos": "954629205 915417065", "Actividad": null, "Direccion": "CONDE DE GALVEZ 7  41013", "Tipo_Entidad": "Fundación", "Nombre": "Fundación hospitalaria de la orden de malta en españa (fhome)", "Mail": null, "Distrito": "SUR", "Clasificacion_Entidad": null, "Socios": null, "Ciudad": "Sevilla"}},
{"geometry": {"type": "Point", "coordinates": [-5.9856698, 37.3614165]}, "type": "Feature", "properties": {"CIF": "G81461493", "Telefonos": null, "Actividad": null, "Direccion": "AVENIDA DE REINA MERCEDES 19 A ESCALERA 1 5º 1 41012", "Tipo_Entidad": "Fundación", "Nombre": "Fundación iepala", "Mail": null, "Distrito": "SUR", "Clasificacion_Entidad": null, "Socios": null, "Ciudad": "Sevilla"}},
{"geometry": {"type": "Point", "coordinates": [-5.9907978, 37.4038471]}, "type": "Feature", "properties": {"CIF": null, "Telefonos": null, "Actividad": null, "Direccion": "TORRIJANO 15  41009", "Tipo_Entidad": "Fundación", "Nombre": "Fundación intered (ongd)", "Mail": null, "Distrito": "MACARENA", "Clasificacion_Entidad": null, "Socios": null, "Ciudad": "Sevilla"}},
{"geometry": {"type": "Point", "coordinates": [-5.993824699999999, 37.3910177]}, "type": "Feature", "properties": {"CIF": null, "Telefonos": null, "Actividad": null, "Direccion": "CERRAJERIA 11  41004", "Tipo_Entidad": "Fundación", "Nombre": "Fundación jorge queralto", "Mail": null, "Distrito": "CASCO ANTIGUO", "Clasificacion_Entidad": null, "Socios": null, "Ciudad": "Sevilla"}},
{"geometry": {"type": "Point", "coordinates": [-5.998039899999999, 37.39361]}, "type": "Feature", "properties": {"CIF": "G99002412", "Telefonos": "954.217.301 91.446.94.66", "Actividad": null, "Direccion": "C/ JESÚS DE LA VERA-CRUZ, 10  41002", "Tipo_Entidad": "Fundación", "Nombre": "Fundación manuel maría vicuña", "Mail": null, "Distrito": "CASCO ANTIGUO", "Clasificacion_Entidad": null, "Socios": null, "Ciudad": "Sevilla"}},
{"geometry": {"type": "Point", "coordinates": [-5.9972733, 37.3882205]}, "type": "Feature", "properties": {"CIF": "G91041441", "Telefonos": null, "Actividad": null, "Direccion": "ZARAGOZA 36  41001", "Tipo_Entidad": "Fundación", "Nombre": "Fundación maría fulmen", "Mail": null, "Distrito": "CASCO ANTIGUO", "Clasificacion_Entidad": null, "Socios": null, "Ciudad": "Sevilla"}},
{"geometry": {"type": "Point", "coordinates": [-5.977522899999999, 37.3579137]}, "type": "Feature", "properties": {"CIF": null, "Telefonos": "954 223151", "Actividad": null, "Direccion": "BAMI 33  41013", "Tipo_Entidad": "Fundación", "Nombre": "Fundación mary ward", "Mail": null, "Distrito": "BELLAVISTA-LA PALMERA", "Clasificacion_Entidad": null, "Socios": null, "Ciudad": "Sevilla"}},
{"geometry": {"type": "Point", "coordinates": [-5.970830599999999, 37.3796212]}, "type": "Feature", "properties": {"CIF": "G41904608", "Telefonos": null, "Actividad": null, "Direccion": "ESPINOSA Y C-RCEL 26  41005", "Tipo_Entidad": "Fundación", "Nombre": "Fundacion mornese", "Mail": null, "Distrito": "NERVION", "Clasificacion_Entidad": null, "Socios": null, "Ciudad": "Sevilla"}},
{"geometry": {"type": "Point", "coordinates": [-5.986736199999999, 37.3839078]}, "type": "Feature", "properties": {"CIF": "G90057381", "Telefonos": null, "Actividad": null, "Direccion": "AVDA. MENÉNDEZ PELAYO, 20 ; 4ª 41004", "Tipo_Entidad": "Fundación", "Nombre": "Fundación new health", "Mail": null, "Distrito": "NERVION", "Clasificacion_Entidad": null, "Socios": null, "Ciudad": "Sevilla"}},
{"geometry": {"type": "Point", "coordinates": [-5.9857108, 37.4017355]}, "type": "Feature", "properties": {"CIF": "G91817924", "Telefonos": "676.784.937 610.254.527", "Actividad": null, "Direccion": "C/ MUÑOZ LEÓN, 9  41009", "Tipo_Entidad": "Fundación", "Nombre": "Fundación odontología social luis seiquer", "Mail": null, "Distrito": "MACARENA", "Clasificacion_Entidad": null, "Socios": null, "Ciudad": "Sevilla"}},
{"geometry": {"type": "Point", "coordinates": [-5.9852786, 37.3731144]}, "type": "Feature", "properties": {"CIF": "G41891482", "Telefonos": null, "Actividad": null, "Direccion": "AVDA. DE LA BORBOLLA 47  41013", "Tipo_Entidad": "Fundación", "Nombre": "Fundacion para la coop. internacional dr. manuel madrazo", "Mail": null, "Distrito": "SUR", "Clasificacion_Entidad": null, "Socios": null, "Ciudad": "Sevilla"}},
{"geometry": {"type": "Point", "coordinates": [-5.9139053, 37.4087417]}, "type": "Feature", "properties": {"CIF": "G41553561", "Telefonos": null, "Actividad": null, "Direccion": "AVDA. REPÚBLICA DE CHINA, 34  41020", "Tipo_Entidad": "Fundación", "Nombre": "Fundación para la cooperación apy-solidaridad en acción", "Mail": null, "Distrito": "ESTE", "Clasificacion_Entidad": null, "Socios": null, "Ciudad": "Sevilla"}},
{"geometry": {"type": "Point", "coordinates": [-5.9578, 37.4024]}, "type": "Feature", "properties": {"CIF": "G91872838", "Telefonos": "954.405.011 639.218.379", "Actividad": null, "Direccion": "C/ MACEDONIA, 4 - 5º A 41007", "Tipo_Entidad": "Fundación", "Nombre": "Fundación pasión y compromiso", "Mail": null, "Distrito": "SAN PABLO-SANTA JUSTA", "Clasificacion_Entidad": null, "Socios": null, "Ciudad": "Sevilla"}},
{"geometry": {"type": "Point", "coordinates": [-5.995563, 37.3937377]}, "type": "Feature", "properties": {"CIF": "G41627001", "Telefonos": "954 507 012 954225704", "Actividad": null, "Direccion": "C/ TRAJANO, 1 - 6º 41002", "Tipo_Entidad": "Fundación", "Nombre": "Fundación paz y solidaridad andalucía", "Mail": null, "Distrito": "CASCO ANTIGUO", "Clasificacion_Entidad": null, "Socios": null, "Ciudad": "Sevilla"}},
{"geometry": {"type": "Point", "coordinates": [-5.9832725, 37.384222]}, "type": "Feature", "properties": {"CIF": "G82585787", "Telefonos": "954.425.840 649.994.402", "Actividad": null, "Direccion": "C/ SAN BERNARDO, 4  41018", "Tipo_Entidad": "Fundación", "Nombre": "Fundación pequeño deseo", "Mail": null, "Distrito": "NERVION", "Clasificacion_Entidad": null, "Socios": null, "Ciudad": "Sevilla"}},
{"geometry": {"type": "Point", "coordinates": [-5.9926471, 37.40692680000001]}, "type": "Feature", "properties": {"CIF": "G62627450", "Telefonos": "699.469.360 934.515.152 954.404.524", "Actividad": null, "Direccion": "AVICENA 39 2- 1º A 41009", "Tipo_Entidad": "Fundación", "Nombre": "Fundación privada ojos del mundo (ulls del mon)", "Mail": null, "Distrito": "MACARENA", "Clasificacion_Entidad": null, "Socios": null, "Ciudad": "Sevilla"}},
{"geometry": {"type": "Point", "coordinates": [-5.9855844, 37.3989839]}, "type": "Feature", "properties": {"CIF": null, "Telefonos": null, "Actividad": null, "Direccion": "SAN JULIAN 9 1º B 41003", "Tipo_Entidad": "Fundación", "Nombre": "Fundación privada vipassana", "Mail": null, "Distrito": "CASCO ANTIGUO", "Clasificacion_Entidad": null, "Socios": null, "Ciudad": "Sevilla"}},
{"geometry": {"type": "Point", "coordinates": [-5.986441399999999, 37.3824443]}, "type": "Feature", "properties": {"CIF": null, "Telefonos": "954253085 666543189", "Actividad": null, "Direccion": "CTRA. DE MÁLAGA.- KM. 1   41016", "Tipo_Entidad": "Fundación", "Nombre": "Fundación psicopediatria de sevilla.", "Mail": null, "Distrito": "ESTE", "Clasificacion_Entidad": null, "Socios": null, "Ciudad": "Sevilla"}},
{"geometry": {"type": "Point", "coordinates": [-5.97935, 37.38106]}, "type": "Feature", "properties": {"CIF": "G83844316", "Telefonos": "618 308 151 914 906 211", "Actividad": null, "Direccion": "AVDA. DE LA BUHAIRA, 31  41018", "Tipo_Entidad": "Fundación", "Nombre": "Fundacion randstad", "Mail": null, "Distrito": "NERVION", "Clasificacion_Entidad": null, "Socios": null, "Ciudad": "Sevilla"}},
{"geometry": {"type": "Point", "coordinates": [-5.9771228, 37.3875985]}, "type": "Feature", "properties": {"CIF": null, "Telefonos": "954150880 607726394", "Actividad": null, "Direccion": "SAN FLORENCIO 2  41018", "Tipo_Entidad": "Fundación", "Nombre": "Fundación sembrando futuro", "Mail": null, "Distrito": "NERVION", "Clasificacion_Entidad": null, "Socios": null, "Ciudad": "Sevilla"}},
{"geometry": {"type": "Point", "coordinates": [-6.0039056, 37.3906663]}, "type": "Feature", "properties": {"CIF": "G91545863", "Telefonos": null, "Actividad": null, "Direccion": "AVDA. CRISTO DE LA EXPIRACIÓN S/N   41001", "Tipo_Entidad": "Fundación", "Nombre": "Fundación sevilla acoge", "Mail": null, "Distrito": "CASCO ANTIGUO", "Clasificacion_Entidad": null, "Socios": null, "Ciudad": "Sevilla"}},
{"geometry": {"type": "Point", "coordinates": [-5.9814244, 37.4275517]}, "type": "Feature", "properties": {"CIF": "G91812776", "Telefonos": null, "Actividad": null, "Direccion": "MEDINA Y GALNARES S/N  41015", "Tipo_Entidad": "Fundación", "Nombre": "Fundación solas", "Mail": null, "Distrito": "NORTE", "Clasificacion_Entidad": null, "Socios": null, "Ciudad": "Sevilla"}},
{"geometry": {"type": "Point", "coordinates": [-5.9722909, 37.3634804]}, "type": "Feature", "properties": {"CIF": null, "Telefonos": null, "Actividad": null, "Direccion": "MANZANILLA, BLOQUE 5 6 9º B 41013", "Tipo_Entidad": "Fundación", "Nombre": "Fundación solem", "Mail": null, "Distrito": "SUR", "Clasificacion_Entidad": null, "Socios": null, "Ciudad": "Sevilla"}},
{"geometry": {"type": "Point", "coordinates": [-6.0001558, 37.3784785]}, "type": "Feature", "properties": {"CIF": "G80956733", "Telefonos": null, "Actividad": null, "Direccion": "AVDA. REPÚBLICA ARGENTINA 15 - 5º B 41010", "Tipo_Entidad": "Fundación", "Nombre": "Fundación tierra de hombres", "Mail": null, "Distrito": "LOS REMEDIOS", "Clasificacion_Entidad": null, "Socios": null, "Ciudad": "Sevilla"}},
{"geometry": {"type": "Point", "coordinates": [-5.99578, 37.4019801]}, "type": "Feature", "properties": {"CIF": "G81393548", "Telefonos": "954.218.082 661.010.173", "Actividad": null, "Direccion": "C/ YUSTE, 9 - BAJO 41002", "Tipo_Entidad": "Fundación", "Nombre": "Fundación triángulo andalucía", "Mail": null, "Distrito": "CASCO ANTIGUO", "Clasificacion_Entidad": null, "Socios": null, "Ciudad": "Sevilla"}},
{"geometry": {"type": "Point", "coordinates": [-5.9899751, 37.3918705]}, "type": "Feature", "properties": {"CIF": null, "Telefonos": null, "Actividad": null, "Direccion": "PLAZA CRISTO DE BURGOS 29  41004", "Tipo_Entidad": "Fundación", "Nombre": "Fundacion verbum, para el lenguaje y la comunicación", "Mail": null, "Distrito": "CASCO ANTIGUO", "Clasificacion_Entidad": null, "Socios": null, "Ciudad": "Sevilla"}},
{"geometry": {"type": "Point", "coordinates": [-5.9953956, 37.39372609999999]}, "type": "Feature", "properties": {"CIF": "F41013103", "Telefonos": null, "Actividad": null, "Direccion": "TRAJANO, 2", "Tipo_Entidad": "Cooperativa", "Nombre": "Arrocera del sur, s.coop.and.", "Mail": null, "Distrito": null, "Clasificacion_Entidad": "COOPERATIVAS AGRARIAS", "Socios": null, "Ciudad": "SEVILLA"}},
{"geometry": {"type": "Point", "coordinates": [-6.00182, 37.37195]}, "type": "Feature", "properties": {"CIF": "F91000489", "Telefonos": null, "Actividad": null, "Direccion": "C/ VIRGEN DEL AGUILA, Nº 8. BAJO", "Tipo_Entidad": "Cooperativa", "Nombre": "Guadalquivir avicola - guadavi -, s.coop.and.", "Mail": null, "Distrito": null, "Clasificacion_Entidad": "COOPERATIVAS AGRARIAS", "Socios": null, "Ciudad": "SEVILLA"}},
{"geometry": {"type": "Point", "coordinates": [-5.9726033, 37.3823519]}, "type": "Feature", "properties": {"CIF": "F41194937", "Telefonos": null, "Actividad": null, "Direccion": "ECHEGARAY Nº 1", "Tipo_Entidad": "Cooperativa", "Nombre": "Lucio real", "Mail": null, "Distrito": null, "Clasificacion_Entidad": "COOPERATIVAS AGRARIAS", "Socios": null, "Ciudad": "SEVILLA"}},
{"geometry": {"type": "Point", "coordinates": [-5.980950399999999, 37.3671058]}, "type": "Feature", "properties": {"CIF": "F91361386", "Telefonos": null, "Actividad": null, "Direccion": "GENARO PARLADÉ ", "Tipo_Entidad": "Cooperativa", "Nombre": "Barreal, s. coop. and.", "Mail": null, "Distrito": null, "Clasificacion_Entidad": "COOPERATIVAS AGRARIAS", "Socios": null, "Ciudad": "SEVILLA"}},
{"geometry": {"type": "Point", "coordinates": [-5.9843798, 37.3976632]}, "type": "Feature", "properties": {"CIF": null, "Telefonos": null, "Actividad": null, "Direccion": "DE EL PELICANO", "Tipo_Entidad": "Cooperativa", "Nombre": "Tertulia, s. coop. and.", "Mail": null, "Distrito": null, "Clasificacion_Entidad": "COOPERATIVAS DE CONSUMO", "Socios": null, "Ciudad": "SEVILLA"}},
{"geometry": {"type": "Point", "coordinates": [-5.972619099999999, 37.38504959999999]}, "type": "Feature", "properties": {"CIF": null, "Telefonos": null, "Actividad": null, "Direccion": "luis de morales", "Tipo_Entidad": "Cooperativa", "Nombre": "Corralito 2015, s. coop. and.", "Mail": null, "Distrito": null, "Clasificacion_Entidad": "COOPERATIVAS DE CONSUMO", "Socios": null, "Ciudad": "SEVILLA"}},
{"geometry": {"type": "Point", "coordinates": [-6.0018613, 37.3770738]}, "type": "Feature", "properties": {"CIF": null, "Telefonos": null, "Actividad": null, "Direccion": "NIEBLA", "Tipo_Entidad": "Cooperativa", "Nombre": " despensa del sur s. coop. and.", "Mail": null, "Distrito": null, "Clasificacion_Entidad": "COOPERATIVAS DE CONSUMO", "Socios": null, "Ciudad": "SEVILLA"}},
{"geometry": {"type": "Point", "coordinates": [-5.983368, 37.4034675]}, "type": "Feature", "properties": {"CIF": null, "Telefonos": null, "Actividad": null, "Direccion": "LEON XIII", "Tipo_Entidad": "Cooperativa", "Nombre": "Las comadres s. coop. and.", "Mail": null, "Distrito": null, "Clasificacion_Entidad": "COOPERATIVAS DE CONSUMO", "Socios": null, "Ciudad": "SEVILLA"}},
{"geometry": {"type": "Point", "coordinates": [-5.9993295, 37.398323]}, "type": "Feature", "properties": {"CIF": "F91166314", "Telefonos": null, "Actividad": null, "Direccion": "C/ CRISTO DEL BUEN FIN, 4", "Tipo_Entidad": "Cooperativa", "Nombre": "Ecoortiga, s. coop. and. de consumo ecologico", "Mail": null, "Distrito": null, "Clasificacion_Entidad": "COOPERATIVAS DE CONSUMO", "Socios": null, "Ciudad": "SEVILLA"}},
{"geometry": {"type": "Point", "coordinates": [-5.9939718, 37.3887447]}, "type": "Feature", "properties": {"CIF": "F90092909", "Telefonos": null, "Actividad": null, "Direccion": "SAN FRANCISCO", "Tipo_Entidad": "Cooperativa", "Nombre": "Sociedad cooperativa virgen de los reyes y asuncion s.c.a.", "Mail": null, "Distrito": null, "Clasificacion_Entidad": "COOPERATIVAS DE CONSUMO", "Socios": null, "Ciudad": "SEVILLA"}},
{"geometry": {"type": "Point", "coordinates": [-5.9934238, 37.39892469999999]}, "type": "Feature", "properties": {"CIF": null, "Telefonos": null, "Actividad": null, "Direccion": "ALAMEDA DE HERCULES", "Tipo_Entidad": "Cooperativa", "Nombre": "Sbp-comunicadores asociados de impulso empresarial, s. coop. and.", "Mail": null, "Distrito": null, "Clasificacion_Entidad": "COOPERATIVAS DE IMPULSO EMPRESARIAL", "Socios": null, "Ciudad": "SEVILLA"}},
{"geometry": {"type": "Point", "coordinates": [-5.9934238, 37.39892469999999]}, "type": "Feature", "properties": {"CIF": "F90108598", "Telefonos": null, "Actividad": null, "Direccion": "Alameda de Hercules", "Tipo_Entidad": "Cooperativa", "Nombre": "Cooperativa de ingeniería de impulso empresarial s. coop. and.", "Mail": null, "Distrito": null, "Clasificacion_Entidad": "COOPERATIVAS DE IMPULSO EMPRESARIAL", "Socios": null, "Ciudad": "SEVILLA"}},
{"geometry": {"type": "Point", "coordinates": [-5.9710244, 37.4236806]}, "type": "Feature", "properties": {"CIF": "F90204512", "Telefonos": null, "Actividad": null, "Direccion": "PINO MONTANO", "Tipo_Entidad": "Cooperativa", "Nombre": "Mujeres libres sociedad cooperativa andaluza", "Mail": null, "Distrito": null, "Clasificacion_Entidad": "COOPERATIVAS DE INTERÉS SOCIAL", "Socios": null, "Ciudad": "SEVILLA"}},
{"geometry": {"type": "Point", "coordinates": [-5.9712378, 37.4022554]}, "type": "Feature", "properties": {"CIF": "F41792318", "Telefonos": null, "Actividad": null, "Direccion": "Carretera de Carmona", "Tipo_Entidad": "Cooperativa", "Nombre": "Aura ett  s.coop.and. de interes social", "Mail": null, "Distrito": null, "Clasificacion_Entidad": "COOPERATIVAS DE INTERÉS SOCIAL", "Socios": null, "Ciudad": "SEVILLA"}},
{"geometry": {"type": "Point", "coordinates": [-5.9813923, 37.3722298]}, "type": "Feature", "properties": {"CIF": null, "Telefonos": null, "Actividad": null, "Direccion": "C/ PORVENIR Nº 32-34, BLOQUE B", "Tipo_Entidad": "Cooperativa", "Nombre": "Santa ana la real, s. coop. and. de interes social", "Mail": null, "Distrito": null, "Clasificacion_Entidad": "COOPERATIVAS DE INTERÉS SOCIAL", "Socios": null, "Ciudad": "SEVILLA"}},
{"geometry": {"type": "Point", "coordinates": [-6.0068692, 37.3873488]}, "type": "Feature", "properties": {"CIF": null, "Telefonos": null, "Actividad": null, "Direccion": "alfareria", "Tipo_Entidad": "Cooperativa", "Nombre": "Zona educativa 3, s.coop.and", "Mail": null, "Distrito": null, "Clasificacion_Entidad": "COOPERATIVAS DE INTERÉS SOCIAL", "Socios": null, "Ciudad": "SEVILLA"}},
{"geometry": {"type": "Point", "coordinates": [-5.994225, 37.398744]}, "type": "Feature", "properties": {"CIF": "F91777789", "Telefonos": null, "Actividad": null, "Direccion": "ALAMEDA DE HÉRCULES 32 -33 1º", "Tipo_Entidad": "Cooperativa", "Nombre": "S. coop. and. de interés social discaparte", "Mail": null, "Distrito": null, "Clasificacion_Entidad": "COOPERATIVAS DE INTERÉS SOCIAL", "Socios": null, "Ciudad": "SEVILLA"}},
{"geometry": {"type": "Point", "coordinates": [-5.994167600000001, 37.3996716]}, "type": "Feature", "properties": {"CIF": "F91774364", "Telefonos": null, "Actividad": null, "Direccion": "ALAMEDA DE HÉRCULES Nº 32-33 1ª", "Tipo_Entidad": "Cooperativa", "Nombre": "Senda p.d.p.s.h., s.coop.andaluza de interés social", "Mail": null, "Distrito": null, "Clasificacion_Entidad": "COOPERATIVAS DE INTERÉS SOCIAL", "Socios": null, "Ciudad": "SEVILLA"}},
{"geometry": {"type": "Point", "coordinates": [-5.994225, 37.398744]}, "type": "Feature", "properties": {"CIF": null, "Telefonos": null, "Actividad": null, "Direccion": "ALAMEDA DE HÉRCULES Nº 32, 32 1º", "Tipo_Entidad": "Cooperativa", "Nombre": "Plenitud, s. coop. and. de interes social", "Mail": null, "Distrito": null, "Clasificacion_Entidad": "COOPERATIVAS DE INTERÉS SOCIAL", "Socios": null, "Ciudad": "SEVILLA"}},
{"geometry": {"type": "Point", "coordinates": [-5.97147, 37.39052]}, "type": "Feature", "properties": {"CIF": "F91192971", "Telefonos": null, "Actividad": null, "Direccion": "C/ BALTASAR GRACIAN Nº 5 G, BAJO", "Tipo_Entidad": "Cooperativa", "Nombre": "Jovial, s. coop. and. de interes social", "Mail": null, "Distrito": null, "Clasificacion_Entidad": "COOPERATIVAS DE INTERÉS SOCIAL", "Socios": null, "Ciudad": "SEVILLA"}},
{"geometry": {"type": "Point", "coordinates": [-5.9783546, 37.4034654]}, "type": "Feature", "properties": {"CIF": "F91564336", "Telefonos": null, "Actividad": null, "Direccion": "AMANTE LAFFÓN, 59-61", "Tipo_Entidad": "Cooperativa", "Nombre": "Jaralsur, s. coop. and. de interes social", "Mail": null, "Distrito": null, "Clasificacion_Entidad": "COOPERATIVAS DE INTERÉS SOCIAL", "Socios": null, "Ciudad": "SEVILLA"}},
{"geometry": {"type": "Point", "coordinates": [-5.991579, 37.3976429]}, "type": "Feature", "properties": {"CIF": null, "Telefonos": null, "Actividad": null, "Direccion": "FERIA, 50. 2º", "Tipo_Entidad": "Cooperativa", "Nombre": "Leitmotiv s.coop.and. de interés social", "Mail": null, "Distrito": null, "Clasificacion_Entidad": "COOPERATIVAS DE INTERÉS SOCIAL", "Socios": null, "Ciudad": "SEVILLA"}},
{"geometry": {"type": "Point", "coordinates": [-5.9844589, 37.3890924]}, "type": "Feature", "properties": {"CIF": "F91141879", "Telefonos": null, "Actividad": null, "Direccion": "ANDALUCIA", "Tipo_Entidad": "Cooperativa", "Nombre": "Claros, s. coop. and. de interes social", "Mail": null, "Distrito": null, "Clasificacion_Entidad": "COOPERATIVAS DE INTERÉS SOCIAL", "Socios": null, "Ciudad": "SEVILLA"}},
{"geometry": {"type": "Point", "coordinates": [-5.9905886, 37.4069018]}, "type": "Feature", "properties": {"CIF": null, "Telefonos": null, "Actividad": null, "Direccion": "Antonio Buero Vallejo", "Tipo_Entidad": "Cooperativa", "Nombre": "Adoraideas, s. coop. and. de interés social", "Mail": null, "Distrito": null, "Clasificacion_Entidad": "COOPERATIVAS DE INTERÉS SOCIAL", "Socios": null, "Ciudad": "SEVILLA"}},
{"geometry": {"type": "Point", "coordinates": [-5.9700025, 37.3906577]}, "type": "Feature", "properties": {"CIF": "F91559617", "Telefonos": null, "Actividad": null, "Direccion": "C/ SINAÍ, Nº 25-1º B", "Tipo_Entidad": "Cooperativa", "Nombre": "Aidé, s.coop.and. de interés social", "Mail": null, "Distrito": null, "Clasificacion_Entidad": "COOPERATIVAS DE INTERÉS SOCIAL", "Socios": null, "Ciudad": "SEVILLA"}},
{"geometry": {"type": "Point", "coordinates": [-5.9841486, 37.3849783]}, "type": "Feature", "properties": {"CIF": "F91166066", "Telefonos": null, "Actividad": null, "Direccion": "DEMETRIO DE LOS RIOS, 15", "Tipo_Entidad": "Cooperativa", "Nombre": "Central de compras pecuaria cecope, s. coop. and.", "Mail": null, "Distrito": null, "Clasificacion_Entidad": "COOPERATIVAS DE SEGUNDO Y ULTERIOR GRADO", "Socios": null, "Ciudad": "SEVILLA"}},
{"geometry": {"type": "Point", "coordinates": [-5.957142, 37.3930593]}, "type": "Feature", "properties": {"CIF": null, "Telefonos": null, "Actividad": null, "Direccion": "C/. MASTIN, 1 (P. I. C. A.)", "Tipo_Entidad": "Cooperativa", "Nombre": "Zuman s.coop.and.", "Mail": null, "Distrito": null, "Clasificacion_Entidad": "COOPERATIVAS DE SEGUNDO Y ULTERIOR GRADO", "Socios": null, "Ciudad": "SEVILLA"}},
{"geometry": {"type": "Point", "coordinates": [-5.9588202, 37.3959524]}, "type": "Feature", "properties": {"CIF": null, "Telefonos": null, "Actividad": null, "Direccion": "CALLE TESALÓNICA", "Tipo_Entidad": "Cooperativa", "Nombre": "Cereales  sevilla s. coop. and.", "Mail": null, "Distrito": null, "Clasificacion_Entidad": "COOPERATIVAS DE SEGUNDO Y ULTERIOR GRADO", "Socios": null, "Ciudad": "SEVILLA"}},
{"geometry": {"type": "Point", "coordinates": [-5.980904499999999, 37.3976611]}, "type": "Feature", "properties": {"CIF": null, "Telefonos": null, "Actividad": null, "Direccion": "CARRETERA DE CARMONA Nº 40 L-2", "Tipo_Entidad": "Cooperativa", "Nombre": "A2a, s. coop. and. de 2º grado", "Mail": null, "Distrito": null, "Clasificacion_Entidad": "COOPERATIVAS DE SEGUNDO Y ULTERIOR GRADO", "Socios": null, "Ciudad": "SEVILLA"}},
{"geometry": {"type": "Point", "coordinates": [-5.9653155, 37.3217951]}, "type": "Feature", "properties": {"CIF": "F91059949", "Telefonos": null, "Actividad": null, "Direccion": "PLAZA DEL RETIRO, 2", "Tipo_Entidad": "Cooperativa", "Nombre": "S. coop. and. transportes europa sur", "Mail": null, "Distrito": null, "Clasificacion_Entidad": "COOPERATIVAS DE SERVICIOS", "Socios": null, "Ciudad": "SEVILLA"}},
{"geometry": {"type": "Point", "coordinates": [-5.945447199999999, 37.3908607]}, "type": "Feature", "properties": {"CIF": "F41395559", "Telefonos": null, "Actividad": null, "Direccion": "AVDA. ROBERTO OSBORNE", "Tipo_Entidad": "Cooperativa", "Nombre": "Union sevillana de servicios del taxi, s. coop. and.", "Mail": null, "Distrito": null, "Clasificacion_Entidad": "COOPERATIVAS DE SERVICIOS", "Socios": null, "Ciudad": "SEVILLA"}},
{"geometry": {"type": "Point", "coordinates": [-5.9654251, 37.420139]}, "type": "Feature", "properties": {"CIF": "F91414144", "Telefonos": null, "Actividad": null, "Direccion": "ALARIFES, 3, 3º A", "Tipo_Entidad": "Cooperativa", "Nombre": "Surseis, s. coop. and.", "Mail": null, "Distrito": null, "Clasificacion_Entidad": "COOPERATIVAS DE SERVICIOS", "Socios": null, "Ciudad": "SEVILLA"}},
{"geometry": {"type": "Point", "coordinates": [-5.9858036, 37.4138664]}, "type": "Feature", "properties": {"CIF": "F91221887", "Telefonos": null, "Actividad": null, "Direccion": "C/ CAMINO DEL ALMEZ, 1", "Tipo_Entidad": "Cooperativa", "Nombre": "Cenfotrans, s. coop. and.", "Mail": null, "Distrito": null, "Clasificacion_Entidad": "COOPERATIVAS DE SERVICIOS", "Socios": null, "Ciudad": "SEVILLA"}},
{"geometry": {"type": "Point", "coordinates": [-5.9907358, 37.3622784]}, "type": "Feature", "properties": {"CIF": "F41022088", "Telefonos": null, "Actividad": null, "Direccion": "AVDA. DE GUADALHORCE, S/N", "Tipo_Entidad": "Cooperativa", "Nombre": "Transportes de mercancias de sevilla, s.coop.and", "Mail": null, "Distrito": null, "Clasificacion_Entidad": "COOPERATIVAS DE SERVICIOS", "Socios": null, "Ciudad": "SEVILLA"}},
{"geometry": {"type": "Point", "coordinates": [-5.994225, 37.398744]}, "type": "Feature", "properties": {"CIF": null, "Telefonos": null, "Actividad": null, "Direccion": "C/ ALAMEDA DE HERCULES, 32-33 1ª", "Tipo_Entidad": "Cooperativa", "Nombre": "Ciatgroup s.coop.and.", "Mail": null, "Distrito": null, "Clasificacion_Entidad": "COOPERATIVAS DE SERVICIOS", "Socios": null, "Ciudad": "SEVILLA"}},
{"geometry": {"type": "Point", "coordinates": [-5.9953844, 37.3872259]}, "type": "Feature", "properties": {"CIF": null, "Telefonos": null, "Actividad": null, "Direccion": "C/ HARINAS Nº 5", "Tipo_Entidad": "Cooperativa", "Nombre": "Puertalbero, s. coop. and.", "Mail": null, "Distrito": null, "Clasificacion_Entidad": "COOPERATIVAS DE SERVICIOS", "Socios": null, "Ciudad": "SEVILLA"}},
{"geometry": {"type": "Point", "coordinates": [-5.984223, 37.3594116]}, "type": "Feature", "properties": {"CIF": "F41163999", "Telefonos": null, "Actividad": null, "Direccion": "CALLE TERRAL Nº5", "Tipo_Entidad": "Cooperativa", "Nombre": "Coprisma, s.coop.and.", "Mail": null, "Distrito": null, "Clasificacion_Entidad": "COOPERATIVAS DE SERVICIOS", "Socios": null, "Ciudad": "SEVILLA"}},
{"geometry": {"type": "Point", "coordinates": [-5.9865216, 37.3839039]}, "type": "Feature", "properties": {"CIF": "F91158659", "Telefonos": null, "Actividad": null, "Direccion": "C/ CONDE DE CIFUENTES Nº 6", "Tipo_Entidad": "Cooperativa", "Nombre": "Vitrubio, s. coop. and.", "Mail": null, "Distrito": null, "Clasificacion_Entidad": "COOPERATIVAS DE SERVICIOS", "Socios": null, "Ciudad": "SEVILLA"}},
{"geometry": {"type": "Point", "coordinates": [-6.009771499999999, 37.387322]}, "type": "Feature", "properties": {"CIF": null, "Telefonos": null, "Actividad": null, "Direccion": "TEJARES", "Tipo_Entidad": "Cooperativa", "Nombre": "Tejares once s. coop. and.", "Mail": null, "Distrito": null, "Clasificacion_Entidad": "COOPERATIVAS DE SERVICIOS", "Socios": null, "Ciudad": "SEVILLA"}},
{"geometry": {"type": "Point", "coordinates": [-5.9725458, 37.4274229]}, "type": "Feature", "properties": {"CIF": "F90204579", "Telefonos": null, "Actividad": null, "Direccion": "ARQUITECTURA", "Tipo_Entidad": "Cooperativa", "Nombre": "Gometrans s. coop. and.", "Mail": null, "Distrito": null, "Clasificacion_Entidad": "COOPERATIVAS DE TRANSPORTE", "Socios": null, "Ciudad": "SEVILLA"}},
{"geometry": {"type": "Point", "coordinates": [-5.9725458, 37.4274229]}, "type": "Feature", "properties": {"CIF": "F90204108", "Telefonos": null, "Actividad": null, "Direccion": "ARQUITECTURA", "Tipo_Entidad": "Cooperativa", "Nombre": "Formetrans s. coop. and.", "Mail": null, "Distrito": null, "Clasificacion_Entidad": "COOPERATIVAS DE TRANSPORTE", "Socios": null, "Ciudad": "SEVILLA"}},
{"geometry": {"type": "Point", "coordinates": [-5.9371082, 37.3863394]}, "type": "Feature", "properties": {"CIF": "F90210881", "Telefonos": null, "Actividad": null, "Direccion": "A92", "Tipo_Entidad": "Cooperativa", "Nombre": "Manzano e hijos s.coop.and.", "Mail": null, "Distrito": null, "Clasificacion_Entidad": "COOPERATIVAS DE TRANSPORTE", "Socios": null, "Ciudad": "SEVILLA"}},
{"geometry": {"type": "Point", "coordinates": [-5.9520024, 37.3666477]}, "type": "Feature", "properties": {"CIF": "F90159385", "Telefonos": null, "Actividad": null, "Direccion": "ÁGUILA DE ORO", "Tipo_Entidad": "Cooperativa", "Nombre": "Leg soc.coop.and.", "Mail": null, "Distrito": null, "Clasificacion_Entidad": "COOPERATIVAS DE TRANSPORTE", "Socios": null, "Ciudad": "SEVILLA"}},
{"geometry": {"type": "Point", "coordinates": [-5.978348899999999, 37.40453309999999]}, "type": "Feature", "properties": {"CIF": "F900219726", "Telefonos": null, "Actividad": null, "Direccion": "CONDE DE HALCON", "Tipo_Entidad": "Cooperativa", "Nombre": " europrens s.coop.and.", "Mail": null, "Distrito": null, "Clasificacion_Entidad": "COOPERATIVAS DE TRANSPORTE", "Socios": null, "Ciudad": "SEVILLA"}},
{"geometry": {"type": "Point", "coordinates": [-5.9947159, 37.3865443]}, "type": "Feature", "properties": {"CIF": "F90283599", "Telefonos": null, "Actividad": null, "Direccion": "GARCIA DE VINUESA", "Tipo_Entidad": "Cooperativa", "Nombre": "Plaza del rey fernando iv s.coop.and.", "Mail": null, "Distrito": null, "Clasificacion_Entidad": "COOPERATIVAS DE VIVIENDAS", "Socios": null, "Ciudad": "SEVILLA"}},
{"geometry": {"type": "Point", "coordinates": [-5.968124700000001, 37.3802647]}, "type": "Feature", "properties": {"CIF": null, "Telefonos": null, "Actividad": null, "Direccion": "CEAN BERMUDEZ", "Tipo_Entidad": "Cooperativa", "Nombre": "Cooperativa de viviendas cean bermudez soc. coop. and.", "Mail": null, "Distrito": null, "Clasificacion_Entidad": "COOPERATIVAS DE VIVIENDAS", "Socios": null, "Ciudad": "SEVILLA"}},
{"geometry": {"type": "Point", "coordinates": [-5.9947159, 37.3865443]}, "type": "Feature", "properties": {"CIF": "F90222423", "Telefonos": null, "Actividad": null, "Direccion": "GARCIA DE VINUESA", "Tipo_Entidad": "Cooperativa", "Nombre": "San francisco plaza s.coop.and.", "Mail": null, "Distrito": null, "Clasificacion_Entidad": "COOPERATIVAS DE VIVIENDAS", "Socios": null, "Ciudad": "SEVILLA"}},
{"geometry": {"type": "Point", "coordinates": [-5.9866496, 37.3839605]}, "type": "Feature", "properties": {"CIF": "F41634023", "Telefonos": null, "Actividad": null, "Direccion": "MENENDEZ PELAYO, Nº 22.", "Tipo_Entidad": "Cooperativa", "Nombre": "Viviendas galeon, s.coop.and.", "Mail": null, "Distrito": null, "Clasificacion_Entidad": "COOPERATIVAS DE VIVIENDAS", "Socios": null, "Ciudad": "SEVILLA"}},
{"geometry": {"type": "Point", "coordinates": [-5.9953844, 37.3872259]}, "type": "Feature", "properties": {"CIF": null, "Telefonos": null, "Actividad": null, "Direccion": "HARINAS, 5", "Tipo_Entidad": "Cooperativa", "Nombre": "Puerta camas, s. coop. and.", "Mail": null, "Distrito": null, "Clasificacion_Entidad": "COOPERATIVAS DE VIVIENDAS", "Socios": null, "Ciudad": "SEVILLA"}},
{"geometry": {"type": "Point", "coordinates": [-5.9783935, 37.37009949999999]}, "type": "Feature", "properties": {"CIF": null, "Telefonos": null, "Actividad": null, "Direccion": "AVDA. RAMON CARANDE Nº 14, PORTAL 3, 1º B", "Tipo_Entidad": "Cooperativa", "Nombre": "Vivitax, s. coop. and.", "Mail": null, "Distrito": null, "Clasificacion_Entidad": "COOPERATIVAS DE VIVIENDAS", "Socios": null, "Ciudad": "SEVILLA"}},
{"geometry": {"type": "Point", "coordinates": [-5.9838267, 37.3695733]}, "type": "Feature", "properties": {"CIF": null, "Telefonos": null, "Actividad": null, "Direccion": "COLOMBIA, 6", "Tipo_Entidad": "Cooperativa", "Nombre": "Galgon, s. coop. and.", "Mail": null, "Distrito": null, "Clasificacion_Entidad": "COOPERATIVAS DE VIVIENDAS", "Socios": null, "Ciudad": "SEVILLA"}},
{"geometry": {"type": "Point", "coordinates": [-6.0056105, 37.3764552]}, "type": "Feature", "properties": {"CIF": "F91397869", "Telefonos": null, "Actividad": null, "Direccion": "AVDA. REP. ARGENTINA, 58, 1º D", "Tipo_Entidad": "Cooperativa", "Nombre": "Residencial las yucas, s. coop. and.", "Mail": null, "Distrito": null, "Clasificacion_Entidad": "COOPERATIVAS DE VIVIENDAS", "Socios": null, "Ciudad": "SEVILLA"}},
{"geometry": {"type": "Point", "coordinates": [-5.9847278, 37.3939822]}, "type": "Feature", "properties": {"CIF": null, "Telefonos": null, "Actividad": null, "Direccion": "CALLE PINTO Nº 11", "Tipo_Entidad": "Cooperativa", "Nombre": "Viviendas de perez  marin y silva, s. coop. and.", "Mail": null, "Distrito": null, "Clasificacion_Entidad": "COOPERATIVAS DE VIVIENDAS", "Socios": null, "Ciudad": "SEVILLA"}},
{"geometry": {"type": "Point", "coordinates": [-5.9807554, 37.3779955]}, "type": "Feature", "properties": {"CIF": "F91421396", "Telefonos": null, "Actividad": null, "Direccion": "CL DOCTOR ANTONIO CORTÉS LLADÓ, 6", "Tipo_Entidad": "Cooperativa", "Nombre": "Vivendia costa, s. coop. and.", "Mail": null, "Distrito": null, "Clasificacion_Entidad": "COOPERATIVAS DE VIVIENDAS", "Socios": null, "Ciudad": "SEVILLA"}},
{"geometry": {"type": "Point", "coordinates": [-6.0056105, 37.3764552]}, "type": "Feature", "properties": {"CIF": null, "Telefonos": null, "Actividad": null, "Direccion": "AVDA. REPUBLICA ARGENTINA, 58, 1º D", "Tipo_Entidad": "Cooperativa", "Nombre": "Cimbra, s. coop. and.", "Mail": null, "Distrito": null, "Clasificacion_Entidad": "COOPERATIVAS DE VIVIENDAS", "Socios": null, "Ciudad": "SEVILLA"}},
{"geometry": {"type": "Point", "coordinates": [-6.0056105, 37.3764552]}, "type": "Feature", "properties": {"CIF": null, "Telefonos": null, "Actividad": null, "Direccion": "AVDA. REPUBLICA ARGENTINA 58, 1º D", "Tipo_Entidad": "Cooperativa", "Nombre": "Residencial las violetas, s. coop. and.", "Mail": null, "Distrito": null, "Clasificacion_Entidad": "COOPERATIVAS DE VIVIENDAS", "Socios": null, "Ciudad": "SEVILLA"}},
{"geometry": {"type": "Point", "coordinates": [-5.9783935, 37.37009949999999]}, "type": "Feature", "properties": {"CIF": "F41815226", "Telefonos": null, "Actividad": null, "Direccion": "AVDA RAMON CARANDE, 14.1º B.", "Tipo_Entidad": "Cooperativa", "Nombre": "Aridane, s. coop. and.", "Mail": null, "Distrito": null, "Clasificacion_Entidad": "COOPERATIVAS DE VIVIENDAS", "Socios": null, "Ciudad": "SEVILLA"}},
{"geometry": {"type": "Point", "coordinates": [-6.0056105, 37.3764552]}, "type": "Feature", "properties": {"CIF": "F91339275", "Telefonos": null, "Actividad": null, "Direccion": "AVDA. REP. ARGENTINA, 58, 1º D", "Tipo_Entidad": "Cooperativa", "Nombre": "Serenity, s. coop. and.", "Mail": null, "Distrito": null, "Clasificacion_Entidad": "COOPERATIVAS DE VIVIENDAS", "Socios": null, "Ciudad": "SEVILLA"}},
{"geometry": {"type": "Point", "coordinates": [-5.998628999999999, 37.3893972]}, "type": "Feature", "properties": {"CIF": null, "Telefonos": null, "Actividad": null, "Direccion": "C/ MORATIN 25, 2º B", "Tipo_Entidad": "Cooperativa", "Nombre": "Sauceda 7 - 2003, s. coop. and.", "Mail": null, "Distrito": null, "Clasificacion_Entidad": "COOPERATIVAS DE VIVIENDAS", "Socios": null, "Ciudad": "SEVILLA"}},
{"geometry": {"type": "Point", "coordinates": [-5.9783526, 37.369915]}, "type": "Feature", "properties": {"CIF": null, "Telefonos": null, "Actividad": null, "Direccion": "AVDA. RAMÓN CARANDE, Nº 14 1º B", "Tipo_Entidad": "Cooperativa", "Nombre": "Alcándara, s.coop.and", "Mail": null, "Distrito": null, "Clasificacion_Entidad": "COOPERATIVAS DE VIVIENDAS", "Socios": null, "Ciudad": "SEVILLA"}},
{"geometry": {"type": "Point", "coordinates": [-5.9758071, 37.4266458]}, "type": "Feature", "properties": {"CIF": "F90143488", "Telefonos": null, "Actividad": null, "Direccion": "ASTRONOMIA", "Tipo_Entidad": "Cooperativa", "Nombre": "Nuevo nervion, s. coop. and.", "Mail": null, "Distrito": null, "Clasificacion_Entidad": "COOPERATIVAS DE VIVIENDAS", "Socios": null, "Ciudad": "SEVILLA"}},
{"geometry": {"type": "Point", "coordinates": [-5.9954765, 37.3881841]}, "type": "Feature", "properties": {"CIF": "F41818725", "Telefonos": null, "Actividad": null, "Direccion": "PLAZA NUEVA 3-2º", "Tipo_Entidad": "Cooperativa", "Nombre": "Jardines del guadaira, s. coop. and.", "Mail": null, "Distrito": null, "Clasificacion_Entidad": "COOPERATIVAS DE VIVIENDAS", "Socios": null, "Ciudad": "SEVILLA"}},
{"geometry": {"type": "Point", "coordinates": [-5.9953844, 37.3872259]}, "type": "Feature", "properties": {"CIF": "F41838160", "Telefonos": null, "Actividad": null, "Direccion": "HARINAS Nº 5", "Tipo_Entidad": "Cooperativa", "Nombre": "Puerta del agua , s.coop.and.", "Mail": null, "Distrito": null, "Clasificacion_Entidad": "COOPERATIVAS DE VIVIENDAS", "Socios": null, "Ciudad": "SEVILLA"}},
{"geometry": {"type": "Point", "coordinates": [-6.0056105, 37.3764552]}, "type": "Feature", "properties": {"CIF": "F91094664", "Telefonos": null, "Actividad": null, "Direccion": "REPUBLICA ARGENTINA, 58  1º D", "Tipo_Entidad": "Cooperativa", "Nombre": "Santa engracia, s. coop. and.", "Mail": null, "Distrito": null, "Clasificacion_Entidad": "COOPERATIVAS DE VIVIENDAS", "Socios": null, "Ciudad": "SEVILLA"}},
{"geometry": {"type": "Point", "coordinates": [-5.9953844, 37.3872259]}, "type": "Feature", "properties": {"CIF": "F41823519", "Telefonos": null, "Actividad": null, "Direccion": "C/ HARINAS Nº 5.", "Tipo_Entidad": "Cooperativa", "Nombre": "Puertavillanueva, s.coop.and.", "Mail": null, "Distrito": null, "Clasificacion_Entidad": "COOPERATIVAS DE VIVIENDAS", "Socios": null, "Ciudad": "SEVILLA"}},
{"geometry": {"type": "Point", "coordinates": [-5.9953844, 37.3872259]}, "type": "Feature", "properties": {"CIF": "F41921503", "Telefonos": null, "Actividad": null, "Direccion": "C/ HARINAS, 5", "Tipo_Entidad": "Cooperativa", "Nombre": "Puertajoven, s. coop. and.", "Mail": null, "Distrito": null, "Clasificacion_Entidad": "COOPERATIVAS DE VIVIENDAS", "Socios": null, "Ciudad": "SEVILLA"}},
{"geometry": {"type": "Point", "coordinates": [-5.9767076, 37.3586278]}, "type": "Feature", "properties": {"CIF": "F91183608", "Telefonos": null, "Actividad": null, "Direccion": "C/ CASTILLO DE OLVERA Nº 1 BAJO A", "Tipo_Entidad": "Cooperativa", "Nombre": "Covigest, s. coop. and.", "Mail": null, "Distrito": null, "Clasificacion_Entidad": "COOPERATIVAS DE VIVIENDAS", "Socios": null, "Ciudad": "SEVILLA"}},
{"geometry": {"type": "Point", "coordinates": [-5.9953844, 37.3872259]}, "type": "Feature", "properties": {"CIF": "F91222935", "Telefonos": null, "Actividad": null, "Direccion": "HARINAS, 5", "Tipo_Entidad": "Cooperativa", "Nombre": "Puerta zoco, s.coop.and.", "Mail": null, "Distrito": null, "Clasificacion_Entidad": "COOPERATIVAS DE VIVIENDAS", "Socios": null, "Ciudad": "SEVILLA"}},
{"geometry": {"type": "Point", "coordinates": [-5.9953844, 37.3872259]}, "type": "Feature", "properties": {"CIF": null, "Telefonos": null, "Actividad": null, "Direccion": "HARINAS, 5", "Tipo_Entidad": "Cooperativa", "Nombre": "Puerta axarquia, sociedad cooperativa andaluza", "Mail": null, "Distrito": null, "Clasificacion_Entidad": "COOPERATIVAS DE VIVIENDAS", "Socios": null, "Ciudad": "SEVILLA"}},
{"geometry": {"type": "Point", "coordinates": [-5.9953844, 37.3872259]}, "type": "Feature", "properties": {"CIF": "F91225292", "Telefonos": null, "Actividad": null, "Direccion": "HARINAS, 5", "Tipo_Entidad": "Cooperativa", "Nombre": "Puerta oriente, sociedad cooperativa andaluza", "Mail": null, "Distrito": null, "Clasificacion_Entidad": "COOPERATIVAS DE VIVIENDAS", "Socios": null, "Ciudad": "SEVILLA"}},
{"geometry": {"type": "Point", "coordinates": [-5.9953844, 37.3872259]}, "type": "Feature", "properties": {"CIF": "F91253187", "Telefonos": null, "Actividad": null, "Direccion": "HARINAS, 5", "Tipo_Entidad": "Cooperativa", "Nombre": "Puerta juncosa, sociedad cooperativa andaluza", "Mail": null, "Distrito": null, "Clasificacion_Entidad": "COOPERATIVAS DE VIVIENDAS", "Socios": null, "Ciudad": "SEVILLA"}},
{"geometry": {"type": "Point", "coordinates": [-5.9783526, 37.369915]}, "type": "Feature", "properties": {"CIF": "F41676271", "Telefonos": null, "Actividad": null, "Direccion": "AVENIDA RAMON CARANDE 14, 1º B", "Tipo_Entidad": "Cooperativa", "Nombre": "Valderrey, s. coop. and.", "Mail": null, "Distrito": null, "Clasificacion_Entidad": "COOPERATIVAS DE VIVIENDAS", "Socios": null, "Ciudad": "SEVILLA"}},
{"geometry": {"type": "Point", "coordinates": [-5.9741366, 37.4046851]}, "type": "Feature", "properties": {"CIF": "F91270009", "Telefonos": null, "Actividad": null, "Direccion": "C/ LLANES, Nº 18", "Tipo_Entidad": "Cooperativa", "Nombre": "Bermejales del sur, s. coop. and", "Mail": null, "Distrito": null, "Clasificacion_Entidad": "COOPERATIVAS DE VIVIENDAS", "Socios": null, "Ciudad": "SEVILLA"}},
{"geometry": {"type": "Point", "coordinates": [-5.9783526, 37.369915]}, "type": "Feature", "properties": {"CIF": "F91269365", "Telefonos": null, "Actividad": null, "Direccion": "AVENIDA RAMON CARANDE, 14  1º B", "Tipo_Entidad": "Cooperativa", "Nombre": "Fenicia, s. coop. and.", "Mail": null, "Distrito": null, "Clasificacion_Entidad": "COOPERATIVAS DE VIVIENDAS", "Socios": null, "Ciudad": "SEVILLA"}},
{"geometry": {"type": "Point", "coordinates": [-6.0056105, 37.3764552]}, "type": "Feature", "properties": {"CIF": "F91271536", "Telefonos": null, "Actividad": null, "Direccion": "REPUBLICA ARGENTINA, 58, 1º D", "Tipo_Entidad": "Cooperativa", "Nombre": "Belair, sociedad cooperativa andaluza", "Mail": null, "Distrito": null, "Clasificacion_Entidad": "COOPERATIVAS DE VIVIENDAS", "Socios": null, "Ciudad": "SEVILLA"}},
{"geometry": {"type": "Point", "coordinates": [-5.9953844, 37.3872259]}, "type": "Feature", "properties": {"CIF": "F91277103", "Telefonos": null, "Actividad": null, "Direccion": "HARINAS, 5", "Tipo_Entidad": "Cooperativa", "Nombre": "Puerta andalusi, sociedad cooperativa andaluza", "Mail": null, "Distrito": null, "Clasificacion_Entidad": "COOPERATIVAS DE VIVIENDAS", "Socios": null, "Ciudad": "SEVILLA"}},
{"geometry": {"type": "Point", "coordinates": [-5.9953844, 37.3872259]}, "type": "Feature", "properties": {"CIF": "F91282970", "Telefonos": null, "Actividad": null, "Direccion": "HARINAS, 5", "Tipo_Entidad": "Cooperativa", "Nombre": "Puerta osuna, sociedad cooperativa andaluza", "Mail": null, "Distrito": null, "Clasificacion_Entidad": "COOPERATIVAS DE VIVIENDAS", "Socios": null, "Ciudad": "SEVILLA"}},
{"geometry": {"type": "Point", "coordinates": [-5.995661, 37.3869306]}, "type": "Feature", "properties": {"CIF": null, "Telefonos": null, "Actividad": null, "Direccion": "HARINAS", "Tipo_Entidad": "Cooperativa", "Nombre": "Puerta valleniza, sociedad cooperativa andaluza", "Mail": null, "Distrito": null, "Clasificacion_Entidad": "COOPERATIVAS DE VIVIENDAS", "Socios": null, "Ciudad": "SEVILLA"}},
{"geometry": {"type": "Point", "coordinates": [-5.9793932, 37.3864573]}, "type": "Feature", "properties": {"CIF": "F91324053", "Telefonos": null, "Actividad": null, "Direccion": "JOSE DE LA CAMARA, 3", "Tipo_Entidad": "Cooperativa", "Nombre": "Rivera de cala, s. coop. and.", "Mail": null, "Distrito": null, "Clasificacion_Entidad": "COOPERATIVAS DE VIVIENDAS", "Socios": null, "Ciudad": "SEVILLA"}},
{"geometry": {"type": "Point", "coordinates": [-6.0056105, 37.3764552]}, "type": "Feature", "properties": {"CIF": "F91329359", "Telefonos": null, "Actividad": null, "Direccion": "AVDA. REP. ARGENTINA, 58, 1º D", "Tipo_Entidad": "Cooperativa", "Nombre": "Astra mar, s. coop. and.", "Mail": null, "Distrito": null, "Clasificacion_Entidad": "COOPERATIVAS DE VIVIENDAS", "Socios": null, "Ciudad": "SEVILLA"}},
{"geometry": {"type": "Point", "coordinates": [-5.999412899999999, 37.3925439]}, "type": "Feature", "properties": {"CIF": null, "Telefonos": null, "Actividad": null, "Direccion": "PLAZA DEL MUSEO Nº 6", "Tipo_Entidad": "Cooperativa", "Nombre": "Reciti mayores, s. coop. and.", "Mail": null, "Distrito": null, "Clasificacion_Entidad": "COOPERATIVAS DE VIVIENDAS", "Socios": null, "Ciudad": "SEVILLA"}},
{"geometry": {"type": "Point", "coordinates": [-5.9925842, 37.4034471]}, "type": "Feature", "properties": {"CIF": "F91541409", "Telefonos": null, "Actividad": null, "Direccion": "RESOLANA", "Tipo_Entidad": "Cooperativa", "Nombre": "Ingelar, s. coop. and.", "Mail": null, "Distrito": null, "Clasificacion_Entidad": "COOPERATIVAS DE VIVIENDAS", "Socios": null, "Ciudad": "SEVILLA"}},
{"geometry": {"type": "Point", "coordinates": [-5.9702294, 37.3876765]}, "type": "Feature", "properties": {"CIF": "F91584615", "Telefonos": null, "Actividad": null, "Direccion": "AVDA. LUIS MONTOTO Nº 107, PORTAL A, 2º G", "Tipo_Entidad": "Cooperativa", "Nombre": "Villamar s.coop. and.", "Mail": null, "Distrito": null, "Clasificacion_Entidad": "COOPERATIVAS DE VIVIENDAS", "Socios": null, "Ciudad": "SEVILLA"}},
{"geometry": {"type": "Point", "coordinates": [-6.0056105, 37.3764552]}, "type": "Feature", "properties": {"CIF": null, "Telefonos": null, "Actividad": null, "Direccion": "AVDA. REPÚBLICA ARGENTINA Nº 58 1º D", "Tipo_Entidad": "Cooperativa", "Nombre": "Moreta, s. coop. and.", "Mail": null, "Distrito": null, "Clasificacion_Entidad": "COOPERATIVAS DE VIVIENDAS", "Socios": null, "Ciudad": "SEVILLA"}},
{"geometry": {"type": "Point", "coordinates": [-5.9783526, 37.369915]}, "type": "Feature", "properties": {"CIF": "F91650101", "Telefonos": null, "Actividad": null, "Direccion": "C/ RAMÓN CARANDE 14 1º B", "Tipo_Entidad": "Cooperativa", "Nombre": "Arbotante, s.coop. and.", "Mail": null, "Distrito": null, "Clasificacion_Entidad": "COOPERATIVAS DE VIVIENDAS", "Socios": null, "Ciudad": "SEVILLA"}},
{"geometry": {"type": "Point", "coordinates": [-5.9783526, 37.369915]}, "type": "Feature", "properties": {"CIF": "F91700104", "Telefonos": null, "Actividad": null, "Direccion": "AVDA. RAMON CARANDE, 14, 1º B", "Tipo_Entidad": "Cooperativa", "Nombre": "Torvisco, s.coop. and.", "Mail": null, "Distrito": null, "Clasificacion_Entidad": "COOPERATIVAS DE VIVIENDAS", "Socios": null, "Ciudad": "SEVILLA"}},
{"geometry": {"type": "Point", "coordinates": [-5.9953844, 37.3872259]}, "type": "Feature", "properties": {"CIF": "F41773995", "Telefonos": null, "Actividad": null, "Direccion": "C/ HARINAS Nº 5.", "Tipo_Entidad": "Cooperativa", "Nombre": "Puertaromeral, s.coop. and.", "Mail": null, "Distrito": null, "Clasificacion_Entidad": "COOPERATIVAS DE VIVIENDAS", "Socios": null, "Ciudad": "SEVILLA"}},
{"geometry": {"type": "Point", "coordinates": [-5.9896176, 37.389489]}, "type": "Feature", "properties": {"CIF": "F41763400", "Telefonos": null, "Actividad": null, "Direccion": "C/ ALMIRANTE HOYOS, Nº 10", "Tipo_Entidad": "Cooperativa", "Nombre": "La juderia, s.coop.and.", "Mail": null, "Distrito": null, "Clasificacion_Entidad": "COOPERATIVAS DE VIVIENDAS", "Socios": null, "Ciudad": "SEVILLA"}},
{"geometry": {"type": "Point", "coordinates": [-5.9783935, 37.37009949999999]}, "type": "Feature", "properties": {"CIF": "F41815200", "Telefonos": null, "Actividad": null, "Direccion": "RAMÓN CARANDE, 14, 1º B", "Tipo_Entidad": "Cooperativa", "Nombre": "Rivendel, s.coop.and.", "Mail": null, "Distrito": null, "Clasificacion_Entidad": "COOPERATIVAS DE VIVIENDAS", "Socios": null, "Ciudad": "SEVILLA"}},
{"geometry": {"type": "Point", "coordinates": [-5.9947159, 37.3865443]}, "type": "Feature", "properties": {"CIF": "F90185471", "Telefonos": null, "Actividad": null, "Direccion": "GARCIA DE VINUESA", "Tipo_Entidad": "Cooperativa", "Nombre": "Plaza tomares s.coop.and.", "Mail": null, "Distrito": null, "Clasificacion_Entidad": "COOPERATIVAS DE VIVIENDAS", "Socios": null, "Ciudad": "SEVILLA"}},
{"geometry": {"type": "Point", "coordinates": [-5.9783935, 37.37009949999999]}, "type": "Feature", "properties": {"CIF": "F41871260", "Telefonos": null, "Actividad": null, "Direccion": "RAMON CARANDE, 14, 1B", "Tipo_Entidad": "Cooperativa", "Nombre": "Nuevo portil, s.coop.and.", "Mail": null, "Distrito": null, "Clasificacion_Entidad": "COOPERATIVAS DE VIVIENDAS", "Socios": null, "Ciudad": "SEVILLA"}},
{"geometry": {"type": "Point", "coordinates": [-5.9940633, 37.3839173]}, "type": "Feature", "properties": {"CIF": "F41997644", "Telefonos": null, "Actividad": null, "Direccion": "ADOLFO RODRIGUEZ JURADO, 6- 4º- C", "Tipo_Entidad": "Cooperativa", "Nombre": "Ciudad-jardin puerta de andalucia s. coop. and.", "Mail": null, "Distrito": null, "Clasificacion_Entidad": "COOPERATIVAS DE VIVIENDAS", "Socios": null, "Ciudad": "SEVILLA"}},
{"geometry": {"type": "Point", "coordinates": [-5.9783935, 37.37009949999999]}, "type": "Feature", "properties": {"CIF": "F41329075", "Telefonos": null, "Actividad": null, "Direccion": "C/ RAMON CARANDE 14, 1º B.", "Tipo_Entidad": "Cooperativa", "Nombre": "Jardin del agua, s.coop.and.", "Mail": null, "Distrito": null, "Clasificacion_Entidad": "COOPERATIVAS DE VIVIENDAS", "Socios": null, "Ciudad": "SEVILLA"}},
{"geometry": {"type": "Point", "coordinates": [-5.9941187, 37.3856323]}, "type": "Feature", "properties": {"CIF": "F91763847", "Telefonos": null, "Actividad": null, "Direccion": "AVDA. DE LA CONSTITUCION, 24. 3º C", "Tipo_Entidad": "Cooperativa", "Nombre": "Vecinos del sur s.coop.and.", "Mail": null, "Distrito": null, "Clasificacion_Entidad": "COOPERATIVAS DE VIVIENDAS", "Socios": null, "Ciudad": "SEVILLA"}},
{"geometry": {"type": "Point", "coordinates": [-5.985215800000001, 37.3741691]}, "type": "Feature", "properties": {"CIF": "F91770628", "Telefonos": null, "Actividad": null, "Direccion": "AVDA. DE LA BORBOLLA, 41", "Tipo_Entidad": "Cooperativa", "Nombre": "Elite centro, s. coop. and.", "Mail": null, "Distrito": null, "Clasificacion_Entidad": "COOPERATIVAS DE VIVIENDAS", "Socios": null, "Ciudad": "SEVILLA"}},
{"geometry": {"type": "Point", "coordinates": [-5.990122, 37.3858584]}, "type": "Feature", "properties": {"CIF": null, "Telefonos": null, "Actividad": null, "Direccion": "XIMENEZ DE ENCISO, 12", "Tipo_Entidad": "Cooperativa", "Nombre": "Duomo, s. coop. and.", "Mail": null, "Distrito": null, "Clasificacion_Entidad": "COOPERATIVAS DE VIVIENDAS", "Socios": null, "Ciudad": "SEVILLA"}},
{"geometry": {"type": "Point", "coordinates": [-5.985215800000001, 37.3741691]}, "type": "Feature", "properties": {"CIF": "F91730374", "Telefonos": null, "Actividad": null, "Direccion": "AV. DE LA BORBOLLA 41", "Tipo_Entidad": "Cooperativa", "Nombre": "Residencial elite, s. coop. and.", "Mail": null, "Distrito": null, "Clasificacion_Entidad": "COOPERATIVAS DE VIVIENDAS", "Socios": null, "Ciudad": "SEVILLA"}},
{"geometry": {"type": "Point", "coordinates": [-5.972584899999999, 37.38852139999999]}, "type": "Feature", "properties": {"CIF": "F91282376", "Telefonos": null, "Actividad": null, "Direccion": "AVDA. KANSAS CITY 12, 2º B", "Tipo_Entidad": "Cooperativa", "Nombre": "Terrazas de chipiona, s. coop. and.", "Mail": null, "Distrito": null, "Clasificacion_Entidad": "COOPERATIVAS DE VIVIENDAS", "Socios": null, "Ciudad": "SEVILLA"}},
{"geometry": {"type": "Point", "coordinates": [-5.986748599999999, 37.3661523]}, "type": "Feature", "properties": {"CIF": null, "Telefonos": null, "Actividad": null, "Direccion": "CHAVES REY", "Tipo_Entidad": "Cooperativa", "Nombre": "Prado buhaira 2010, s.coop.and.", "Mail": null, "Distrito": null, "Clasificacion_Entidad": "COOPERATIVAS DE VIVIENDAS", "Socios": null, "Ciudad": "SEVILLA"}},
{"geometry": {"type": "Point", "coordinates": [-5.964524099999999, 37.3248042]}, "type": "Feature", "properties": {"CIF": null, "Telefonos": null, "Actividad": null, "Direccion": "AVD.JEREZ.Nº 68, 4º D", "Tipo_Entidad": "Cooperativa", "Nombre": "Gadide s.coop.and. de viviendas", "Mail": null, "Distrito": null, "Clasificacion_Entidad": "COOPERATIVAS DE VIVIENDAS", "Socios": null, "Ciudad": "SEVILLA"}},
{"geometry": {"type": "Point", "coordinates": [-5.984072299999999, 37.3792432]}, "type": "Feature", "properties": {"CIF": "F41950916", "Telefonos": null, "Actividad": null, "Direccion": "C/ CIUDAD DE RONDA, Nº 6, 2º-A", "Tipo_Entidad": "Cooperativa", "Nombre": "Urbe 2000, s.coop.and.", "Mail": null, "Distrito": null, "Clasificacion_Entidad": "COOPERATIVAS DE VIVIENDAS", "Socios": null, "Ciudad": "SEVILLA"}},
{"geometry": {"type": "Point", "coordinates": [-5.9789037, 37.3964056]}, "type": "Feature", "properties": {"CIF": "F41897372", "Telefonos": null, "Actividad": null, "Direccion": "C/ ARROYO, 64", "Tipo_Entidad": "Cooperativa", "Nombre": "Ronda historica, s.coop.and.", "Mail": null, "Distrito": null, "Clasificacion_Entidad": "COOPERATIVAS DE VIVIENDAS", "Socios": null, "Ciudad": "SEVILLA"}},
{"geometry": {"type": "Point", "coordinates": [-5.9947159, 37.3865443]}, "type": "Feature", "properties": {"CIF": "F90176967", "Telefonos": null, "Actividad": null, "Direccion": "GARCIA DE VINUESA", "Tipo_Entidad": "Cooperativa", "Nombre": "Residencial feria s.coop.and.", "Mail": null, "Distrito": null, "Clasificacion_Entidad": "COOPERATIVAS DE VIVIENDAS", "Socios": null, "Ciudad": "SEVILLA"}},
{"geometry": {"type": "Point", "coordinates": [-6.0056105, 37.3764552]}, "type": "Feature", "properties": {"CIF": "F91411173", "Telefonos": null, "Actividad": null, "Direccion": "AVDA. REPUBLICA ARGENTINA, 58, 1º D", "Tipo_Entidad": "Cooperativa", "Nombre": "Los reales de ugena, sociedad cooperativa andaluza", "Mail": null, "Distrito": null, "Clasificacion_Entidad": "COOPERATIVAS DE VIVIENDAS", "Socios": null, "Ciudad": "SEVILLA"}},
{"geometry": {"type": "Point", "coordinates": [-5.9783526, 37.369915]}, "type": "Feature", "properties": {"CIF": "F91780841", "Telefonos": null, "Actividad": null, "Direccion": "C/ RAMÓN CARANDE, 14, 1º B.", "Tipo_Entidad": "Cooperativa", "Nombre": "Arquivolta, s. coop. and.", "Mail": null, "Distrito": null, "Clasificacion_Entidad": "COOPERATIVAS DE VIVIENDAS", "Socios": null, "Ciudad": "SEVILLA"}},
{"geometry": {"type": "Point", "coordinates": [-5.9941187, 37.3856323]}, "type": "Feature", "properties": {"CIF": "F91763854", "Telefonos": null, "Actividad": null, "Direccion": "AVDA. DE LA CONSTITUCION, 24. 3º C", "Tipo_Entidad": "Cooperativa", "Nombre": "Inmobetica s.coop.and.", "Mail": null, "Distrito": null, "Clasificacion_Entidad": "COOPERATIVAS DE VIVIENDAS", "Socios": null, "Ciudad": "SEVILLA"}},
{"geometry": {"type": "Point", "coordinates": [-5.9953844, 37.3872259]}, "type": "Feature", "properties": {"CIF": "F41921495", "Telefonos": null, "Actividad": null, "Direccion": "C/ HARINAS, 5, BAJO", "Tipo_Entidad": "Cooperativa", "Nombre": "Puerta azul, s.coop.and.", "Mail": null, "Distrito": null, "Clasificacion_Entidad": "COOPERATIVAS DE VIVIENDAS", "Socios": null, "Ciudad": "SEVILLA"}},
{"geometry": {"type": "Point", "coordinates": [-5.972619099999999, 37.38504959999999]}, "type": "Feature", "properties": {"CIF": "F90141086", "Telefonos": null, "Actividad": null, "Direccion": "LUIS DE MORALES", "Tipo_Entidad": "Cooperativa", "Nombre": "Plaza nervion s.c.a", "Mail": null, "Distrito": null, "Clasificacion_Entidad": "COOPERATIVAS DE VIVIENDAS", "Socios": null, "Ciudad": "SEVILLA"}},
{"geometry": {"type": "Point", "coordinates": [-5.9953844, 37.3872259]}, "type": "Feature", "properties": {"CIF": "F41877341", "Telefonos": null, "Actividad": null, "Direccion": "HARINAS Nº 5.", "Tipo_Entidad": "Cooperativa", "Nombre": "Puerta olivo, s. coop. and.", "Mail": null, "Distrito": null, "Clasificacion_Entidad": "COOPERATIVAS DE VIVIENDAS", "Socios": null, "Ciudad": "SEVILLA"}},
{"geometry": {"type": "Point", "coordinates": [-5.9276161, 37.42906660000001]}, "type": "Feature", "properties": {"CIF": "F91182337", "Telefonos": null, "Actividad": null, "Direccion": "CALLE NUTRIA Nº22", "Tipo_Entidad": "Cooperativa", "Nombre": "Despertar, s. coop. and.", "Mail": null, "Distrito": null, "Clasificacion_Entidad": "COOPERATIVAS DE VIVIENDAS", "Socios": null, "Ciudad": "SEVILLA"}},
{"geometry": {"type": "Point", "coordinates": [-5.96786, 37.38047]}, "type": "Feature", "properties": {"CIF": "F91036608", "Telefonos": null, "Actividad": null, "Direccion": "CALLE CARDENAL LLUCH, 51", "Tipo_Entidad": "Cooperativa", "Nombre": "Costa triana, s. coop. and.", "Mail": null, "Distrito": null, "Clasificacion_Entidad": "COOPERATIVAS DE VIVIENDAS", "Socios": null, "Ciudad": "SEVILLA"}},
{"geometry": {"type": "Point", "coordinates": [-5.9783935, 37.37009949999999]}, "type": "Feature", "properties": {"CIF": "F41891649", "Telefonos": null, "Actividad": null, "Direccion": "RAMON CARANDE, 14, 1¿B", "Tipo_Entidad": "Cooperativa", "Nombre": "Isla de la bahia", "Mail": null, "Distrito": null, "Clasificacion_Entidad": "COOPERATIVAS DE VIVIENDAS", "Socios": null, "Ciudad": "SEVILLA"}},
{"geometry": {"type": "Point", "coordinates": [-5.9838973, 37.3587698]}, "type": "Feature", "properties": {"CIF": "F41922527", "Telefonos": null, "Actividad": null, "Direccion": "C/ TERRAL, 5", "Tipo_Entidad": "Cooperativa", "Nombre": "Residencial la ballena, s.coop.and.", "Mail": null, "Distrito": null, "Clasificacion_Entidad": "COOPERATIVAS DE VIVIENDAS", "Socios": null, "Ciudad": "SEVILLA"}},
{"geometry": {"type": "Point", "coordinates": [-5.973827200000001, 37.4040524]}, "type": "Feature", "properties": {"CIF": "F41675331", "Telefonos": null, "Actividad": null, "Direccion": "AVDA.SANTA MARIA DEL REPOSO S/N", "Tipo_Entidad": "Cooperativa", "Nombre": "Gecopar, s.coop.and.", "Mail": null, "Distrito": null, "Clasificacion_Entidad": "COOPERATIVAS DE VIVIENDAS", "Socios": null, "Ciudad": "SEVILLA"}},
{"geometry": {"type": "Point", "coordinates": [-5.996957,37.38890540000001]}, "type": "Feature", "properties": {"CIF": null, "Telefonos": null, "Actividad": null, "Direccion": "MADRID", "Tipo_Entidad": "Cooperativa", "Nombre": "I.s. residencial miraflores, s.coop.and.", "Mail": null, "Distrito": null, "Clasificacion_Entidad": "COOPERATIVAS DE VIVIENDAS", "Socios": null, "Ciudad": "SEVILLA"}},
{"geometry": {"type": "Point", "coordinates": [-5.975370499999999, 37.3832546]}, "type": "Feature", "properties": {"CIF": "F90242777", "Telefonos": null, "Actividad": null, "Direccion": "EDUARDO DATO", "Tipo_Entidad": "Cooperativa", "Nombre": " elcano s. coop. and.", "Mail": null, "Distrito": null, "Clasificacion_Entidad": "COOPERATIVAS DE VIVIENDAS", "Socios": null, "Ciudad": "SEVILLA"}},
{"geometry": {"type": "Point", "coordinates": [-5.9569559, 37.4071482]}, "type": "Feature", "properties": {"CIF": null, "Telefonos": null, "Actividad": null, "Direccion": "RODIO", "Tipo_Entidad": "Cooperativa", "Nombre": " cooperativa de viviendas goya nervion sevilla s.coop.and.", "Mail": null, "Distrito": null, "Clasificacion_Entidad": "COOPERATIVAS DE VIVIENDAS", "Socios": null, "Ciudad": "SEVILLA"}},
{"geometry": {"type": "Point", "coordinates": [-5.977316999999999, 37.3439311]}, "type": "Feature", "properties": {"CIF": "F90276643", "Telefonos": null, "Actividad": null, "Direccion": "AUSTRIA", "Tipo_Entidad": "Cooperativa", "Nombre": " iceberg tarifa, s. coop. and.", "Mail": null, "Distrito": null, "Clasificacion_Entidad": "COOPERATIVAS DE VIVIENDAS", "Socios": null, "Ciudad": "SEVILLA"}},
{"geometry": {"type": "Point", "coordinates": [-5.9960233, 37.3757507]}, "type": "Feature", "properties": {"CIF": "F90280553", "Telefonos": null, "Actividad": null, "Direccion": "JUAN SEBASTIAN ELCANO", "Tipo_Entidad": "Cooperativa", "Nombre": "Residencial virgen del valle 59, s. coop. and.", "Mail": null, "Distrito": null, "Clasificacion_Entidad": "COOPERATIVAS DE VIVIENDAS", "Socios": null, "Ciudad": "SEVILLA"}},
{"geometry": {"type": "Point", "coordinates": [-6.0048968, 37.3801593]}, "type": "Feature", "properties": {"CIF": null, "Telefonos": null, "Actividad": null, "Direccion": "ESPERANZA DE TRIANA ", "Tipo_Entidad": "Cooperativa", "Nombre": "Cooperativa de viviendas san benito 10 sociedad cooperativa andaluza", "Mail": null, "Distrito": null, "Clasificacion_Entidad": "COOPERATIVAS DE VIVIENDAS", "Socios": null, "Ciudad": "SEVILLA"}},
{"geometry": {"type": "Point", "coordinates": [-5.9569559, 37.4071482]}, "type": "Feature", "properties": {"CIF": null, "Telefonos": null, "Actividad": null, "Direccion": "RODIO", "Tipo_Entidad": "Cooperativa", "Nombre": "Viviendas melchor gallegos s. coop. and.", "Mail": null, "Distrito": null, "Clasificacion_Entidad": "COOPERATIVAS DE VIVIENDAS", "Socios": null, "Ciudad": "SEVILLA"}},
{"geometry": {"type": "Point", "coordinates": [-5.9569559, 37.4071482]}, "type": "Feature", "properties": {"CIF": null, "Telefonos": null, "Actividad": null, "Direccion": "RODIO", "Tipo_Entidad": "Cooperativa", "Nombre": "Cooperativas de viviendas rico cejudo s. coop. and.", "Mail": null, "Distrito": null, "Clasificacion_Entidad": "COOPERATIVAS DE VIVIENDAS", "Socios": null, "Ciudad": "SEVILLA"}},
{"geometry": {"type": "Point", "coordinates": [-6.0048968, 37.3801593]}, "type": "Feature", "properties": {"CIF": null, "Telefonos": null, "Actividad": null, "Direccion": "ESPERANZA DE TRIANA", "Tipo_Entidad": "Cooperativa", "Nombre": "Cooperativa de viviendas liñan 1 y 3 sociedad cooperativa andaluza", "Mail": null, "Distrito": null, "Clasificacion_Entidad": "COOPERATIVAS DE VIVIENDAS", "Socios": null, "Ciudad": "SEVILLA"}},
{"geometry": {"type": "Point", "coordinates": [-6.0081155, 37.3886844]}, "type": "Feature", "properties": {"CIF": "F90288028", "Telefonos": null, "Actividad": null, "Direccion": "CASTILLA", "Tipo_Entidad": "Cooperativa", "Nombre": "Alameda 14, sociedad cooperativa andaluza de viviendas", "Mail": null, "Distrito": null, "Clasificacion_Entidad": "COOPERATIVAS DE VIVIENDAS", "Socios": null, "Ciudad": "SEVILLA"}},
{"geometry": {"type": "Point", "coordinates": [-5.975370499999999, 37.3832546]}, "type": "Feature", "properties": {"CIF": "F90241365", "Telefonos": null, "Actividad": null, "Direccion": "EDUARDO DATO", "Tipo_Entidad": "Cooperativa", "Nombre": "Post sociedad cooperativa andaluza", "Mail": null, "Distrito": null, "Clasificacion_Entidad": "COOPERATIVAS DE VIVIENDAS", "Socios": null, "Ciudad": "SEVILLA"}},
{"geometry": {"type": "Point", "coordinates": [-5.994037800000001, 37.383675]}, "type": "Feature", "properties": {"CIF": null, "Telefonos": null, "Actividad": null, "Direccion": "ADOLFO RODRIGUEZ JURADO", "Tipo_Entidad": "Cooperativa", "Nombre": "Goles 19, s.coop.and.", "Mail": null, "Distrito": null, "Clasificacion_Entidad": "COOPERATIVAS DE VIVIENDAS", "Socios": null, "Ciudad": "SEVILLA"}},
{"geometry": {"type": "Point", "coordinates": [-5.994037800000001, 37.383675]}, "type": "Feature", "properties": {"CIF": null, "Telefonos": null, "Actividad": null, "Direccion": "ADOLFO RODRIGUEZ JURADO", "Tipo_Entidad": "Cooperativa", "Nombre": "Armenta 3 s.coop.and.", "Mail": null, "Distrito": null, "Clasificacion_Entidad": "COOPERATIVAS DE VIVIENDAS", "Socios": null, "Ciudad": "SEVILLA"}},
{"geometry": {"type": "Point", "coordinates": [-6.0010221, 37.3955933]}, "type": "Feature", "properties": {"CIF": null, "Telefonos": null, "Actividad": null, "Direccion": "GOLES", "Tipo_Entidad": "Cooperativa", "Nombre": "Goles 19, sociedad cooperativa andaluza de viviendas", "Mail": null, "Distrito": null, "Clasificacion_Entidad": "COOPERATIVAS DE VIVIENDAS", "Socios": null, "Ciudad": "SEVILLA"}},
{"geometry": {"type": "Point", "coordinates": [-5.9947159, 37.3865443]}, "type": "Feature", "properties": {"CIF": "F90229253", "Telefonos": null, "Actividad": null, "Direccion": "GARCIA DE VINUESA", "Tipo_Entidad": "Cooperativa", "Nombre": "Plaza del valle  s. coop. and.", "Mail": null, "Distrito": null, "Clasificacion_Entidad": "COOPERATIVAS DE VIVIENDAS", "Socios": null, "Ciudad": "SEVILLA"}},
{"geometry": {"type": "Point", "coordinates": [-5.9947159, 37.3865443]}, "type": "Feature", "properties": {"CIF": "F90275264", "Telefonos": null, "Actividad": null, "Direccion": "GARCIA DE VINUESA", "Tipo_Entidad": "Cooperativa", "Nombre": "3.0 plaza del valle s.coop.and.", "Mail": null, "Distrito": null, "Clasificacion_Entidad": "COOPERATIVAS DE VIVIENDAS", "Socios": null, "Ciudad": "SEVILLA"}},
{"geometry": {"type": "Point", "coordinates": [-5.9947159, 37.3865443]}, "type": "Feature", "properties": {"CIF": "F90290693", "Telefonos": null, "Actividad": null, "Direccion": "GARCIA DE VINUESA", "Tipo_Entidad": "Cooperativa", "Nombre": "Plaza tomares iii s.coop.and.", "Mail": null, "Distrito": null, "Clasificacion_Entidad": "COOPERATIVAS DE VIVIENDAS", "Socios": null, "Ciudad": "SEVILLA"}},
{"geometry": {"type": "Point", "coordinates": [-5.9947159, 37.3865443]}, "type": "Feature", "properties": {"CIF": null, "Telefonos": null, "Actividad": null, "Direccion": "GARCIA DE VINUESA", "Tipo_Entidad": "Cooperativa", "Nombre": "Los navarros plaza s.coop.and.", "Mail": null, "Distrito": null, "Clasificacion_Entidad": "COOPERATIVAS DE VIVIENDAS", "Socios": null, "Ciudad": "SEVILLA"}},
{"geometry": {"type": "Point", "coordinates": [-5.9947159, 37.3865443]}, "type": "Feature", "properties": {"CIF": "F90280124", "Telefonos": null, "Actividad": null, "Direccion": "GARCIA DE VINUESA", "Tipo_Entidad": "Cooperativa", "Nombre": "Plaza la florida s.coop.and.", "Mail": null, "Distrito": null, "Clasificacion_Entidad": "COOPERATIVAS DE VIVIENDAS", "Socios": null, "Ciudad": "SEVILLA"}},
{"geometry": {"type": "Point", "coordinates": [-5.994167600000001, 37.3996716]}, "type": "Feature", "properties": {"CIF": null, "Telefonos": null, "Actividad": null, "Direccion": "ALAMEDA DE HERCULES Nº 32-33 1º", "Tipo_Entidad": "Cooperativa", "Nombre": "Corporación piñandalucia, s.coop.and.", "Mail": null, "Distrito": null, "Clasificacion_Entidad": "COOPERATIVAS HETEROGÉNEAS", "Socios": null, "Ciudad": "SEVILLA"}},
{"geometry": {"type": "Point", "coordinates": [-5.9840918, 37.3739318]}, "type": "Feature", "properties": {"CIF": "F90286972", "Telefonos": null, "Actividad": null, "Direccion": "SANTA ROSA", "Tipo_Entidad": "Cooperativa", "Nombre": "Estraperlo, s. coop. and.", "Mail": null, "Distrito": null, "Clasificacion_Entidad": "COOPERATIVAS MIXTAS", "Socios": null, "Ciudad": "SEVILLA"}},
{"geometry": {"type": "Point", "coordinates": [-6.010548, 37.3730991]}, "type": "Feature", "properties": {"CIF": "F90280926", "Telefonos": null, "Actividad": null, "Direccion": "BLAS INFANTE", "Tipo_Entidad": "Cooperativa", "Nombre": "Doblete s. coop. and. mixta", "Mail": null, "Distrito": null, "Clasificacion_Entidad": "COOPERATIVAS MIXTAS", "Socios": null, "Ciudad": "SEVILLA"}},
{"geometry": {"type": "Point", "coordinates": [-5.931757699999999, 37.4070425]}, "type": "Feature", "properties": {"CIF": "F90218041", "Telefonos": null, "Actividad": null, "Direccion": "INNOVACIÓN", "Tipo_Entidad": "Cooperativa", "Nombre": "Tecnologías de la información y comunicación y servicios (ticser) s. coop. and.", "Mail": null, "Distrito": null, "Clasificacion_Entidad": "COOPERATIVAS MIXTAS", "Socios": null, "Ciudad": "SEVILLA"}},
{"geometry": {"type": "Point", "coordinates": [-5.9751188, 37.3674481]}, "type": "Feature", "properties": {"CIF": null, "Telefonos": null, "Actividad": null, "Direccion": "CARMONA", "Tipo_Entidad": "Cooperativa", "Nombre": " produser, s. coop. and.", "Mail": null, "Distrito": null, "Clasificacion_Entidad": "COOPERATIVAS MIXTAS", "Socios": null, "Ciudad": "SEVILLA"}},
{"geometry": {"type": "Point", "coordinates": [-5.9597485, 37.3676511]}, "type": "Feature", "properties": {"CIF": null, "Telefonos": null, "Actividad": null, "Direccion": "Lino", "Tipo_Entidad": "Cooperativa", "Nombre": "Távora teatro abierto, s.coop.and", "Mail": null, "Distrito": null, "Clasificacion_Entidad": "COOPERATIVAS MIXTAS", "Socios": null, "Ciudad": "SEVILLA"}},
{"geometry": {"type": "Point", "coordinates": [-5.978152, 37.3544884]}, "type": "Feature", "properties": {"CIF": null, "Telefonos": null, "Actividad": null, "Direccion": "GUADALBULLON", "Tipo_Entidad": "Cooperativa", "Nombre": "Indigo s. coop. and", "Mail": null, "Distrito": null, "Clasificacion_Entidad": "COOPERATIVAS MIXTAS", "Socios": null, "Ciudad": "SEVILLA"}},
{"geometry": {"type": "Point", "coordinates": [-5.9844408, 37.3850583]}, "type": "Feature", "properties": {"CIF": "G41754904", "Telefonos": null, "Actividad": null, "Direccion": "DEMETRIO DE LOS RIOS, Nº15", "Tipo_Entidad": "Cooperativa", "Nombre": "Cooperativas agro-alimentarias de andalucia", "Mail": null, "Distrito": null, "Clasificacion_Entidad": "FEDERACIONES Y ASOCIACIONES COOPERATIVAS", "Socios": null, "Ciudad": "SEVILLA"}},
{"geometry": {"type": "Point", "coordinates": [-5.994225, 37.398744]}, "type": "Feature", "properties": {"CIF": "G41721747", "Telefonos": null, "Actividad": null, "Direccion": "ALAMEDA DE HERCULES, 32-33, 2ª PTA.", "Tipo_Entidad": "Cooperativa", "Nombre": "Faecta", "Mail": null, "Distrito": null, "Clasificacion_Entidad": "FEDERACIONES Y ASOCIACIONES COOPERATIVAS", "Socios": null, "Ciudad": "SEVILLA"}},
{"geometry": {"type": "Point", "coordinates": [-5.972619099999999, 37.38504959999999]}, "type": "Feature", "properties": {"CIF": "F90173899", "Telefonos": null, "Actividad": null, "Direccion": "LUIS DE MORALES", "Tipo_Entidad": "Cooperativa", "Nombre": "Sorover, s.coop.and", "Mail": null, "Distrito": null, "Clasificacion_Entidad": "OTRAS FÓRMULAS DE COOPERATIVAS", "Socios": null, "Ciudad": "SEVILLA"}},
{"geometry": {"type": "Point", "coordinates": [-5.997879999999999, 37.3725475]}, "type": "Feature", "properties": {"CIF": "F91093120", "Telefonos": null, "Actividad": null, "Direccion": "VIRGEN DE LA CINTA, Nº 20.", "Tipo_Entidad": "Cooperativa", "Nombre": "Grupo jel romani, s. coop. and.", "Mail": null, "Distrito": null, "Clasificacion_Entidad": "SOCIEDADES COOPERATIVAS DE TRABAJO", "Socios": null, "Ciudad": "SEVILLA"}},
{"geometry": {"type": "Point", "coordinates": [-5.9575179, 37.3705163]}, "type": "Feature", "properties": {"CIF": "F90157785", "Telefonos": null, "Actividad": null, "Direccion": "cristo del desamparo y abandono", "Tipo_Entidad": "Cooperativa", "Nombre": "Chichurri s.coop.and.", "Mail": null, "Distrito": null, "Clasificacion_Entidad": "SOCIEDADES COOPERATIVAS DE TRABAJO", "Socios": null, "Ciudad": "SEVILLA"}},
{"geometry": {"type": "Point", "coordinates": [-5.956337, 37.3984163]}, "type": "Feature", "properties": {"CIF": "F90254301", "Telefonos": null, "Actividad": null, "Direccion": "ANTIOQUIA", "Tipo_Entidad": "Cooperativa", "Nombre": "Centro integrado de paisajismo y agroecología, s.coop.and", "Mail": null, "Distrito": null, "Clasificacion_Entidad": "SOCIEDADES COOPERATIVAS DE TRABAJO", "Socios": null, "Ciudad": "SEVILLA"}},
{"geometry": {"type": "Point", "coordinates": [-5.9408676, 37.4395826]}, "type": "Feature", "properties": {"CIF": "F91187773", "Telefonos": null, "Actividad": null, "Direccion": "MIRTO, 6", "Tipo_Entidad": "Cooperativa", "Nombre": "Cooperativa agricola hnos. navio, s. coop. and.", "Mail": null, "Distrito": null, "Clasificacion_Entidad": "SOCIEDADES COOPERATIVAS DE TRABAJO", "Socios": null, "Ciudad": "SEVILLA"}},
{"geometry": {"type": "Point", "coordinates": [-5.994225, 37.398744]}, "type": "Feature", "properties": {"CIF": null, "Telefonos": null, "Actividad": null, "Direccion": "ALAMEDA DE HERCULES 32-33", "Tipo_Entidad": "Cooperativa", "Nombre": "El obrador s.coop.and.", "Mail": null, "Distrito": null, "Clasificacion_Entidad": "SOCIEDADES COOPERATIVAS DE TRABAJO", "Socios": null, "Ciudad": "SEVILLA"}},
{"geometry": {"type": "Point", "coordinates": [-5.982735, 37.4286067]}, "type": "Feature", "properties": {"CIF": "F9138710", "Telefonos": null, "Actividad": null, "Direccion": "CL COQUINA, Nº 22", "Tipo_Entidad": "Cooperativa", "Nombre": "Vanenohe, sociedad cooperativa andaluza", "Mail": null, "Distrito": null, "Clasificacion_Entidad": "SOCIEDADES COOPERATIVAS DE TRABAJO", "Socios": null, "Ciudad": "SEVILLA"}},
{"geometry": {"type": "Point", "coordinates": [-5.9681397, 37.3834102]}, "type": "Feature", "properties": {"CIF": "F91828509", "Telefonos": null, "Actividad": null, "Direccion": "C/ MARQUÉS DEL NERVIÓN Nº 39", "Tipo_Entidad": "Cooperativa", "Nombre": "A2, vino y cultura, s.coop.and.", "Mail": null, "Distrito": null, "Clasificacion_Entidad": "SOCIEDADES COOPERATIVAS DE TRABAJO", "Socios": null, "Ciudad": "SEVILLA"}},
{"geometry": {"type": "Point", "coordinates": [-5.96795, 37.39617]}, "type": "Feature", "properties": {"CIF": "F91350876", "Telefonos": null, "Actividad": null, "Direccion": "AVDA. KANSAS CITY Nº 51", "Tipo_Entidad": "Cooperativa", "Nombre": "Casdecor, sociedad cooperativa andaluza", "Mail": null, "Distrito": null, "Clasificacion_Entidad": "SOCIEDADES COOPERATIVAS DE TRABAJO", "Socios": null, "Ciudad": "SEVILLA"}},
{"geometry": {"type": "Point", "coordinates": [-5.9908866, 37.3999934]}, "type": "Feature", "properties": {"CIF": "F91145037", "Telefonos": null, "Actividad": null, "Direccion": "AMARGURA Nº 8  BAJO", "Tipo_Entidad": "Cooperativa", "Nombre": "Cooperativa estelar, s. coop. and.", "Mail": null, "Distrito": null, "Clasificacion_Entidad": "SOCIEDADES COOPERATIVAS DE TRABAJO", "Socios": null, "Ciudad": "SEVILLA"}},
{"geometry": {"type": "Point", "coordinates": [-6.004398699999999, 37.376414]}, "type": "Feature", "properties": {"CIF": "F91041426", "Telefonos": null, "Actividad": null, "Direccion": "AVENIDA REPUBLICA ARGENTINA Nº 39 B", "Tipo_Entidad": "Cooperativa", "Nombre": "Control de produccion del sur, s. coop. and.", "Mail": null, "Distrito": null, "Clasificacion_Entidad": "SOCIEDADES COOPERATIVAS DE TRABAJO", "Socios": null, "Ciudad": "SEVILLA"}},
{"geometry": {"type": "Point", "coordinates": [-5.9616826, 37.3580078]}, "type": "Feature", "properties": {"CIF": "F90261900", "Telefonos": null, "Actividad": null, "Direccion": "ARQUITECTO JOSE GALNARES", "Tipo_Entidad": "Cooperativa", "Nombre": "Confecciones j&a s.coop.and.", "Mail": null, "Distrito": null, "Clasificacion_Entidad": "SOCIEDADES COOPERATIVAS DE TRABAJO", "Socios": null, "Ciudad": "SEVILLA"}},
{"geometry": {"type": "Point", "coordinates": [-5.9974488, 37.3913842]}, "type": "Feature", "properties": {"CIF": "F91271395", "Telefonos": null, "Actividad": null, "Direccion": "PASAJE JOSEFA REINA PUERTO, Nº3 B", "Tipo_Entidad": "Cooperativa", "Nombre": "Universal tres, s. coop. and.", "Mail": null, "Distrito": null, "Clasificacion_Entidad": "SOCIEDADES COOPERATIVAS DE TRABAJO", "Socios": null, "Ciudad": "SEVILLA"}},
{"geometry": {"type": "Point", "coordinates": [-5.89305, 37.4201674]}, "type": "Feature", "properties": {"CIF": "F91329169", "Telefonos": null, "Actividad": null, "Direccion": "POLIGONO AEROPUERTO, CALLE ARTESA Nº 2", "Tipo_Entidad": "Cooperativa", "Nombre": "Linea moda, s. coop. and.", "Mail": null, "Distrito": null, "Clasificacion_Entidad": "SOCIEDADES COOPERATIVAS DE TRABAJO", "Socios": null, "Ciudad": "SEVILLA"}},
{"geometry": {"type": "Point", "coordinates": [-5.943452499999999, 37.3926576]}, "type": "Feature", "properties": {"CIF": "F41773839", "Telefonos": null, "Actividad": null, "Direccion": "FERNANDEZ MURUBE", "Tipo_Entidad": "Cooperativa", "Nombre": "Almacenes carly, s. coop. and.º", "Mail": null, "Distrito": null, "Clasificacion_Entidad": "SOCIEDADES COOPERATIVAS DE TRABAJO", "Socios": null, "Ciudad": "SEVILLA"}},
{"geometry": {"type": "Point", "coordinates": [-6.0010737, 37.3959595]}, "type": "Feature", "properties": {"CIF": "F91422261", "Telefonos": null, "Actividad": null, "Direccion": "GOLES Nº 48 A  INTERIOR", "Tipo_Entidad": "Cooperativa", "Nombre": "Artesania del dorado hermanos gonzalez, s. coop. and.", "Mail": null, "Distrito": null, "Clasificacion_Entidad": "SOCIEDADES COOPERATIVAS DE TRABAJO", "Socios": null, "Ciudad": "SEVILLA"}},
{"geometry": {"type": "Point", "coordinates": [-5.977539, 37.3480722]}, "type": "Feature", "properties": {"CIF": "F91334615", "Telefonos": null, "Actividad": null, "Direccion": "LYON, 2, PORTAL 1, BAJO A", "Tipo_Entidad": "Cooperativa", "Nombre": "La mota ediciones, sociedad cooperativa andaluza", "Mail": null, "Distrito": null, "Clasificacion_Entidad": "SOCIEDADES COOPERATIVAS DE TRABAJO", "Socios": null, "Ciudad": "SEVILLA"}},
{"geometry": {"type": "Point", "coordinates": [-5.9995283, 37.3885258]}, "type": "Feature", "properties": {"CIF": "F41078395", "Telefonos": null, "Actividad": null, "Direccion": "ALMANSA, 7", "Tipo_Entidad": "Cooperativa", "Nombre": "Graficas san antonio, sociedad cooperativa andaluza", "Mail": null, "Distrito": null, "Clasificacion_Entidad": "SOCIEDADES COOPERATIVAS DE TRABAJO", "Socios": null, "Ciudad": "SEVILLA"}},
{"geometry": {"type": "Point", "coordinates": [-5.994225, 37.398744]}, "type": "Feature", "properties": {"CIF": null, "Telefonos": null, "Actividad": null, "Direccion": "ALAMEDA DE HERCULES, 32.33. 1º", "Tipo_Entidad": "Cooperativa", "Nombre": "Innovarotulo, s. coop. and.", "Mail": null, "Distrito": null, "Clasificacion_Entidad": "SOCIEDADES COOPERATIVAS DE TRABAJO", "Socios": null, "Ciudad": "SEVILLA"}},
{"geometry": {"type": "Point", "coordinates": [-5.9197083, 37.3939438]}, "type": "Feature", "properties": {"CIF": null, "Telefonos": null, "Actividad": null, "Direccion": "FLOR DE PAPEL", "Tipo_Entidad": "Cooperativa", "Nombre": "Albatia, sociedad cooperativa andaluza", "Mail": null, "Distrito": null, "Clasificacion_Entidad": "SOCIEDADES COOPERATIVAS DE TRABAJO", "Socios": null, "Ciudad": "SEVILLA"}},
{"geometry": {"type": "Point", "coordinates": [-5.9592071, 37.3802274]}, "type": "Feature", "properties": {"CIF": "F91066340", "Telefonos": null, "Actividad": null, "Direccion": "C/ ANTON RUIZ Nº 10", "Tipo_Entidad": "Cooperativa", "Nombre": "Encuadernaciones catedral, s. coop. and.", "Mail": null, "Distrito": null, "Clasificacion_Entidad": "SOCIEDADES COOPERATIVAS DE TRABAJO", "Socios": null, "Ciudad": "SEVILLA"}},
{"geometry": {"type": "Point", "coordinates": [-5.9616826, 37.3580078]}, "type": "Feature", "properties": {"CIF": "F90171968", "Telefonos": null, "Actividad": null, "Direccion": "ARQUITECTO JOSE GALNARES", "Tipo_Entidad": "Cooperativa", "Nombre": "3d impact s.coop.and.", "Mail": null, "Distrito": null, "Clasificacion_Entidad": "SOCIEDADES COOPERATIVAS DE TRABAJO", "Socios": null, "Ciudad": "SEVILLA"}},
{"geometry": {"type": "Point", "coordinates": [-5.9868776, 37.3819998]}, "type": "Feature", "properties": {"CIF": "F91087593", "Telefonos": null, "Actividad": null, "Direccion": "MANUEL BERMUDO BARRERA, 3  ESC. B  2º A", "Tipo_Entidad": "Cooperativa", "Nombre": "Eurocristaleria, s. coop. and.", "Mail": null, "Distrito": null, "Clasificacion_Entidad": "SOCIEDADES COOPERATIVAS DE TRABAJO", "Socios": null, "Ciudad": "SEVILLA"}},
{"geometry": {"type": "Point", "coordinates": [-5.982209999999999, 37.40052]}, "type": "Feature", "properties": {"CIF": "F91258061", "Telefonos": null, "Actividad": null, "Direccion": "AVDA. CRUZ ROJA Nº 18", "Tipo_Entidad": "Cooperativa", "Nombre": "Cerrajeria macarena, s.coop. and.", "Mail": null, "Distrito": null, "Clasificacion_Entidad": "SOCIEDADES COOPERATIVAS DE TRABAJO", "Socios": null, "Ciudad": "SEVILLA"}},
{"geometry": {"type": "Point", "coordinates": [-5.9250131, 37.3797956]}, "type": "Feature", "properties": {"CIF": null, "Telefonos": null, "Actividad": null, "Direccion": "PINO CENTRAL", "Tipo_Entidad": "Cooperativa", "Nombre": "Andaluza de tratamientos termicos s.coop.and.", "Mail": null, "Distrito": null, "Clasificacion_Entidad": "SOCIEDADES COOPERATIVAS DE TRABAJO", "Socios": null, "Ciudad": "SEVILLA"}},
{"geometry": {"type": "Point", "coordinates": [-6.0004244, 37.3899208]}, "type": "Feature", "properties": {"CIF": "F91374256", "Telefonos": null, "Actividad": null, "Direccion": "JULIO CESAR, 12 1º D", "Tipo_Entidad": "Cooperativa", "Nombre": "Sociedad cooperativa andaluza cyberescuelas", "Mail": null, "Distrito": null, "Clasificacion_Entidad": "SOCIEDADES COOPERATIVAS DE TRABAJO", "Socios": null, "Ciudad": "SEVILLA"}},
{"geometry": {"type": "Point", "coordinates": [-5.998739, 37.3724118]}, "type": "Feature", "properties": {"CIF": "F90227414", "Telefonos": null, "Actividad": null, "Direccion": "Virgen de la Cinta", "Tipo_Entidad": "Cooperativa", "Nombre": "Solarpen s. coop. and.", "Mail": null, "Distrito": null, "Clasificacion_Entidad": "SOCIEDADES COOPERATIVAS DE TRABAJO", "Socios": null, "Ciudad": "SEVILLA"}},
{"geometry": {"type": "Point", "coordinates": [-5.955658000000001, 37.3751139]}, "type": "Feature", "properties": {"CIF": "F91327841", "Telefonos": null, "Actividad": null, "Direccion": "C/ PUERTO DE LOS ALAZORES 27, 4º C", "Tipo_Entidad": "Cooperativa", "Nombre": "Grupcocina, s. coop. and.", "Mail": null, "Distrito": null, "Clasificacion_Entidad": "SOCIEDADES COOPERATIVAS DE TRABAJO", "Socios": null, "Ciudad": "SEVILLA"}},
{"geometry": {"type": "Point", "coordinates": [-5.9858892, 37.3953221]}, "type": "Feature", "properties": {"CIF": "F91281410", "Telefonos": null, "Actividad": null, "Direccion": "C/ ENLADRILLADA 7, D, 6", "Tipo_Entidad": "Cooperativa", "Nombre": "Madetrans, sociedad cooperativa andaluza", "Mail": null, "Distrito": null, "Clasificacion_Entidad": "SOCIEDADES COOPERATIVAS DE TRABAJO", "Socios": null, "Ciudad": "SEVILLA"}},
{"geometry": {"type": "Point", "coordinates": [-5.985595699999999, 37.4161565]}, "type": "Feature", "properties": {"CIF": "F91036962", "Telefonos": null, "Actividad": null, "Direccion": "C/ CAMINO DE ALMEZ, Nº 65", "Tipo_Entidad": "Cooperativa", "Nombre": "Moclinse, sociedad cooperativa andaluza", "Mail": null, "Distrito": null, "Clasificacion_Entidad": "SOCIEDADES COOPERATIVAS DE TRABAJO", "Socios": null, "Ciudad": "SEVILLA"}},
{"geometry": {"type": "Point", "coordinates": [-5.958769999999999, 37.37219]},