var organizaciones = {
    "type": "FeatureCollection",
    "features": 
[
{"geometry": {"type": "Point", "coordinates": [-6.0113321, 37.3812562]}, "type": "Feature", "properties": {"Web": null, "CIF": null, "Actividad": null, "Direccion": "AVDA DE CORIA 10  41010", "Tipo_Entidad": "Fundación", "Nombre": "Congregación de hermanas de nuestra señora de la consolación", "Mail": null, "Telefono": null, "Clasificacion_Entidad": null, "Distrito": "Triana", "Ciudad": "Sevilla"}},
{"geometry": {"type": "Point", "coordinates": [-5.983053, 37.369688]}, "type": "Feature", "properties": {"Web": null, "CIF": null, "Actividad": null, "Direccion": "COLOMBIA 2  41013", "Tipo_Entidad": "Fundación", "Nombre": "Fundacción internacional de solidaridad compañía de maría (f.i.s.c.)", "Mail": null, "Telefono": "954 619158", "Clasificacion_Entidad": null, "Distrito": "Sur", "Ciudad": "Sevilla"}},
{"geometry": {"type": "Point", "coordinates": [-5.9806094, 37.3921521]}, "type": "Feature", "properties": {"Web": null, "CIF": "G41656109", "Actividad": null, "Direccion": "GONZALO BILBAO 29 LOCAL 6 41009", "Tipo_Entidad": "Fundación", "Nombre": "Fundación  gerón", "Mail": null, "Telefono": null, "Clasificacion_Entidad": null, "Distrito": "San Pablo-Santa Justa", "Ciudad": "Sevilla"}},
{"geometry": {"type": "Point", "coordinates": [-6.0020693, 37.3823097]}, "type": "Feature", "properties": {"Web": null, "CIF": "G91405464", "Actividad": null, "Direccion": "C/ PAGÉS DEL CORRO 136 - ACC. 41010", "Tipo_Entidad": "Fundación", "Nombre": "Fundación  padre leonardo castillo, costaleros para un cristo vivo.", "Mail": null, "Telefono": "954274958 670 636 565", "Clasificacion_Entidad": null, "Distrito": "Triana", "Ciudad": "Sevilla"}},
{"geometry": {"type": "Point", "coordinates": [-5.9797001, 37.3716195]}, "type": "Feature", "properties": {"Web": null, "CIF": "G41405598", "Actividad": null, "Direccion": "AVDA. FELIPE II 32 - 10º- 3 41013", "Tipo_Entidad": "Fundación", "Nombre": "Fundación  prodean", "Mail": null, "Telefono": null, "Clasificacion_Entidad": null, "Distrito": "Sur", "Ciudad": "Sevilla"}},
{"geometry": {"type": "Point", "coordinates": [-5.998971300000001, 37.3911034]}, "type": "Feature", "properties": {"Web": null, "CIF": null, "Actividad": null, "Direccion": "BAILÉN 20 -22 41001", "Tipo_Entidad": "Fundación", "Nombre": "Fundación 'josé manuel lara'", "Mail": null, "Telefono": null, "Clasificacion_Entidad": null, "Distrito": "Casco Antiguo", "Ciudad": "Sevilla"}},
{"geometry": {"type": "Point", "coordinates": [-5.9896087, 37.3931235]}, "type": "Feature", "properties": {"Web": null, "CIF": "G79963237", "Actividad": null, "Direccion": "DOÑA MARÍA CORONEL 14  41003", "Tipo_Entidad": "Fundación", "Nombre": "Fundación accem", "Mail": null, "Telefono": "954313344 954313333", "Clasificacion_Entidad": null, "Distrito": "Casco Antiguo", "Ciudad": "Sevilla"}},
{"geometry": {"type": "Point", "coordinates": [-5.983079999999999, 37.378492]}, "type": "Feature", "properties": {"Web": null, "CIF": "G81164105", "Actividad": null, "Direccion": "PZA. AVIADOR RUIZ DE ALDA 11  41004", "Tipo_Entidad": "Fundación", "Nombre": "Fundación acción contra el hambre", "Mail": null, "Telefono": null, "Clasificacion_Entidad": null, "Distrito": "Sur", "Ciudad": "Sevilla"}},
{"geometry": {"type": "Point", "coordinates": [-5.9782594, 37.3755112]}, "type": "Feature", "properties": {"Web": null, "CIF": "G82382987", "Actividad": null, "Direccion": "AVDA. RAMÓN CARANDE 3  41013", "Tipo_Entidad": "Fundación", "Nombre": "Fundación adecco.", "Mail": null, "Telefono": "677.988.663 954280275", "Clasificacion_Entidad": null, "Distrito": "Sur", "Ciudad": "Sevilla"}},
{"geometry": {"type": "Point", "coordinates": [-5.9745498, 37.38742939999999]}, "type": "Feature", "properties": {"Web": null, "CIF": "G82262932", "Actividad": null, "Direccion": "CÉFIRO 2  41018", "Tipo_Entidad": "Fundación", "Nombre": "Fundación adra", "Mail": null, "Telefono": "690 800 870", "Clasificacion_Entidad": null, "Distrito": "Nervion", "Ciudad": "Sevilla"}},
{"geometry": {"type": "Point", "coordinates": [-5.986394, 37.4036998]}, "type": "Feature", "properties": {"Web": null, "CIF": "N2041048F", "Actividad": null, "Direccion": "FERNÁN SÁNCHEZ DE TOVAR 4 - 2º E 41009", "Tipo_Entidad": "Fundación", "Nombre": "Fundación al-idrisi hispano-marroquí", "Mail": null, "Telefono": "954-901652", "Clasificacion_Entidad": null, "Distrito": "Macarena", "Ciudad": "Sevilla"}},
{"geometry": {"type": "Point", "coordinates": [-6.0011975, 37.3896996]}, "type": "Feature", "properties": {"Web": null, "CIF": "G41896119", "Actividad": null, "Direccion": "MARQUÉS DE PARADAS 26 1- 3º B 41001", "Tipo_Entidad": "Fundación", "Nombre": "Fundación aljaraque", "Mail": null, "Telefono": null, "Clasificacion_Entidad": null, "Distrito": "Casco Antiguo", "Ciudad": "Sevilla"}},
{"geometry": {"type": "Point", "coordinates": [-6.0001155, 37.3982595]}, "type": "Feature", "properties": {"Web": null, "CIF": null, "Actividad": null, "Direccion": "EDUARDO CANO 12 - BAJO 41002", "Tipo_Entidad": "Fundación", "Nombre": "Fundación alternativa", "Mail": null, "Telefono": null, "Clasificacion_Entidad": null, "Distrito": "Casco Antiguo", "Ciudad": "Sevilla"}},
{"geometry": {"type": "Point", "coordinates": [-5.9831445, 37.3703484]}, "type": "Feature", "properties": {"Web": null, "CIF": null, "Actividad": null, "Direccion": "FRANCISCO GUERRERO 6 BAJO A 41013", "Tipo_Entidad": "Fundación", "Nombre": "Fundación altius mano amiga.", "Mail": null, "Telefono": null, "Clasificacion_Entidad": null, "Distrito": "Sur", "Ciudad": "Sevilla"}},
{"geometry": {"type": "Point", "coordinates": [-5.995552699999999, 37.3904029]}, "type": "Feature", "properties": {"Web": null, "CIF": "G41878695", "Actividad": null, "Direccion": "MUÑOZ OLIVE 1 P. 1 3ª PLANTA MOD 19 41001", "Tipo_Entidad": "Fundación", "Nombre": "Fundación altum", "Mail": null, "Telefono": "954220035 619529494", "Clasificacion_Entidad": null, "Distrito": "Casco Antiguo", "Ciudad": "Sevilla"}},
{"geometry": {"type": "Point", "coordinates": [-5.9644067, 37.4239679]}, "type": "Feature", "properties": {"Web": null, "CIF": "G45512993", "Actividad": null, "Direccion": "C/ TEJEDORAS 5 - 6º C 41015", "Tipo_Entidad": "Fundación", "Nombre": "Fundación anaed", "Mail": null, "Telefono": 636168057, "Clasificacion_Entidad": null, "Distrito": "Norte", "Ciudad": "Sevilla"}},
{"geometry": {"type": "Point", "coordinates": [-5.9965608, 37.3902041]}, "type": "Feature", "properties": {"Web": null, "CIF": null, "Actividad": null, "Direccion": "ROSARIO 16  41001", "Tipo_Entidad": "Fundación", "Nombre": "Fundacion andaluza de tauromaquia", "Mail": null, "Telefono": null, "Clasificacion_Entidad": null, "Distrito": "Casco Antiguo", "Ciudad": "Sevilla"}},
{"geometry": {"type": "Point", "coordinates": [-5.9868378, 37.40325]}, "type": "Feature", "properties": {"Web": null, "CIF": "G91233346", "Actividad": null, "Direccion": "FROILÁN DE LA SERNA 4 -6 41009", "Tipo_Entidad": "Fundación", "Nombre": "Fundación andaluza para la cooperación y el desarrollo '4 de diciembre'.", "Mail": null, "Telefono": null, "Clasificacion_Entidad": null, "Distrito": "Macarena", "Ciudad": "Sevilla"}},
{"geometry": {"type": "Point", "coordinates": [-6.0042332, 37.3769512]}, "type": "Feature", "properties": {"Web": null, "CIF": "G79812517", "Actividad": null, "Direccion": "AVDA. REPUBLICA ARGENTINA 46 -9º D 41010", "Tipo_Entidad": "Fundación", "Nombre": "Fundacion ande", "Mail": null, "Telefono": "954 444 484", "Clasificacion_Entidad": null, "Distrito": "Este", "Ciudad": "Sevilla"}},
{"geometry": {"type": "Point", "coordinates": [-5.9930298, 37.3901843]}, "type": "Feature", "properties": {"Web": null, "CIF": "G91816306", "Actividad": null, "Direccion": "PZA. DEL SALVADOR 3 ; PATIO DE LOS NARANJOS 41004", "Tipo_Entidad": "Fundación", "Nombre": "Fundación asistencial nuestro padre jesús de la pasión", "Mail": null, "Telefono": "954.212.327 610.298.360", "Clasificacion_Entidad": null, "Distrito": "Casco Antiguo", "Ciudad": "Sevilla"}},
{"geometry": {"type": "Point", "coordinates": [-5.9543608, 37.3634362]}, "type": "Feature", "properties": {"Web": null, "CIF": "G91204792", "Actividad": null, "Direccion": "C/ PORTOBELO 2 - LOCAL. BAJO POSTERIOR 41006", "Tipo_Entidad": "Fundación", "Nombre": "Fundación asistencial y para la formación, investigación y estudio (afies)", "Mail": null, "Telefono": null, "Clasificacion_Entidad": null, "Distrito": "Sur", "Ciudad": "Sevilla"}},
{"geometry": {"type": "Point", "coordinates": [-5.966457999999999, 37.3671482]}, "type": "Feature", "properties": {"Web": null, "CIF": "G84392810", "Actividad": null, "Direccion": "AVDA. DE LA PAZ S/N  41013", "Tipo_Entidad": "Fundación", "Nombre": "Fundación atenea grupo gid", "Mail": null, "Telefono": "954900293 914478450 914479997", "Clasificacion_Entidad": null, "Distrito": "Sur", "Ciudad": "Sevilla"}},
{"geometry": {"type": "Point", "coordinates": [-5.9563536, 37.3804761]}, "type": "Feature", "properties": {"Web": null, "CIF": "G82920851", "Actividad": null, "Direccion": "C/ DRA. VIEIRA FUENTES 7 ; LOCAL 41006", "Tipo_Entidad": "Fundación", "Nombre": "Fundación balia por la infancia", "Mail": null, "Telefono": null, "Clasificacion_Entidad": null, "Distrito": "Cerro-Amate", "Ciudad": "Sevilla"}},
{"geometry": {"type": "Point", "coordinates": [-5.9992047, 37.3988681]}, "type": "Feature", "properties": {"Web": null, "CIF": "G91088468", "Actividad": null, "Direccion": "C/ NARCISO BONAPLATA 5  41002", "Tipo_Entidad": "Fundación", "Nombre": "Fundación benéfico asistencial 'casco antiguo'", "Mail": null, "Telefono": "954 909 822 677 842 412 677 842 412", "Clasificacion_Entidad": null, "Distrito": "Casco Antiguo", "Ciudad": "Sevilla"}},
{"geometry": {"type": "Point", "coordinates": [-5.9888403, 37.4082791]}, "type": "Feature", "properties": {"Web": null, "CIF": null, "Actividad": null, "Direccion": "PZA. DOCTOR BARRAQUER 2 - 4º A 41009", "Tipo_Entidad": "Fundación", "Nombre": "Fundación- benéfico asistencial pura 'afim'", "Mail": null, "Telefono": null, "Clasificacion_Entidad": null, "Distrito": "Macarena", "Ciudad": "Sevilla"}},
{"geometry": {"type": "Point", "coordinates": [-6.0081962, 37.3836474]}, "type": "Feature", "properties": {"Web": null, "CIF": "G91005157", "Actividad": null, "Direccion": "PLAZA DEL ZURRAQUE 8  41010", "Tipo_Entidad": "Fundación", "Nombre": "Fundación benéfico asistencial triana-Los Remedios", "Mail": null, "Telefono": null, "Clasificacion_Entidad": null, "Distrito": "Triana", "Ciudad": "Sevilla"}},
{"geometry": {"type": "Point", "coordinates": [-5.9660421, 37.3264363]}, "type": "Feature", "properties": {"Web": null, "CIF": "G82765678", "Actividad": null, "Direccion": "JEREZ AV. 106 2º D 41014", "Tipo_Entidad": "Fundación", "Nombre": "Fundación benjamín mehnert", "Mail": null, "Telefono": null, "Clasificacion_Entidad": null, "Distrito": "Bellavista-La Palmera", "Ciudad": "Sevilla"}},
{"geometry": {"type": "Point", "coordinates": [-6.0123468, 37.3822261]}, "type": "Feature", "properties": {"Web": null, "CIF": null, "Actividad": null, "Direccion": "AVDA. DE LOS DESCUBRIMIENTOS S/N  PABELLÓN DE ESPAÑA. ISLA DE LA CARTUJA 41010", "Tipo_Entidad": "Fundación", "Nombre": "Fundación bienal internacional de arte contemporáneo de sevilla", "Mail": null, "Telefono": null, "Clasificacion_Entidad": null, "Distrito": "Triana", "Ciudad": "Sevilla"}},
{"geometry": {"type": "Point", "coordinates": [-5.9761767, 37.4028606]}, "type": "Feature", "properties": {"Web": null, "CIF": "R4100442E", "Actividad": null, "Direccion": "PLAZA VIRGEN DE LOS REYES  S/N. 41004", "Tipo_Entidad": "Fundación", "Nombre": "Fundación cardenal spínola de lucha contra el paro.", "Mail": null, "Telefono": "954225552 954221311", "Clasificacion_Entidad": null, "Distrito": "Casco Antiguo", "Ciudad": "Sevilla"}},
{"geometry": {"type": "Point", "coordinates": [-6.01028, 37.3896003]}, "type": "Feature", "properties": {"Web": null, "CIF": "G41526781", "Actividad": null, "Direccion": "VIRGEN DE PATROCINIO 2  41010", "Tipo_Entidad": "Fundación", "Nombre": "Fundacion centro español de solidaridad proyecto hombre", "Mail": null, "Telefono": "954 347 410 954 347 412", "Clasificacion_Entidad": null, "Distrito": "Triana", "Ciudad": "Sevilla"}},
{"geometry": {"type": "Point", "coordinates": [-5.990068399999999, 37.3962218]}, "type": "Feature", "properties": {"Web": null, "CIF": "G41653718", "Actividad": null, "Direccion": "CASTELLAR 42  41003", "Tipo_Entidad": "Fundación", "Nombre": "Fundación centro internac. médico para migrantes y extranjeros.", "Mail": null, "Telefono": null, "Clasificacion_Entidad": null, "Distrito": "Casco Antiguo", "Ciudad": "Sevilla"}},
{"geometry": {"type": "Point", "coordinates": [-5.996575, 37.3879293]}, "type": "Feature", "properties": {"Web": null, "CIF": null, "Actividad": null, "Direccion": "ZARAGOZA 58  41001", "Tipo_Entidad": "Fundación", "Nombre": "Fundacion centro orient. familiar virgen de los reyes", "Mail": null, "Telefono": null, "Clasificacion_Entidad": null, "Distrito": "Casco Antiguo", "Ciudad": "Sevilla"}},
{"geometry": {"type": "Point", "coordinates": [-5.9631542, 37.3730514]}, "type": "Feature", "properties": {"Web": null, "CIF": "G73600553", "Actividad": null, "Direccion": "C/ ARAGÓN 5  41006", "Tipo_Entidad": "Fundación", "Nombre": "Fundacion cepaim accion integral con inmigrantes", "Mail": null, "Telefono": "687 100 869 954 908 138", "Clasificacion_Entidad": null, "Distrito": "Cerro-Amate", "Ciudad": "Sevilla"}},
{"geometry": {"type": "Point", "coordinates": [-6.00271, 37.37773]}, "type": "Feature", "properties": {"Web": null, "CIF": null, "Actividad": null, "Direccion": "AVDA. REPÚBLICA ARGENTINA 28 - 8º B 41010", "Tipo_Entidad": "Fundación", "Nombre": "Fundación codespa", "Mail": null, "Telefono": null, "Clasificacion_Entidad": null, "Distrito": "Triana", "Ciudad": "Sevilla"}},
{"geometry": {"type": "Point", "coordinates": [-5.9935165, 37.3840426]}, "type": "Feature", "properties": {"Web": null, "CIF": "G91345132", "Actividad": null, "Direccion": "SANTO TOMÁS 17  41001", "Tipo_Entidad": "Fundación", "Nombre": "Fundación contsa", "Mail": null, "Telefono": "954500334 954500301", "Clasificacion_Entidad": null, "Distrito": "Casco Antiguo", "Ciudad": "Sevilla"}},
{"geometry": {"type": "Point", "coordinates": [-5.9783811, 37.389435]}, "type": "Feature", "properties": {"Web": null, "CIF": "G91802686", "Actividad": null, "Direccion": "C/ LÍCTORES 20 - BAJO. 41018", "Tipo_Entidad": "Fundación", "Nombre": "Fundacion cuidar en casa", "Mail": null, "Telefono": null, "Clasificacion_Entidad": null, "Distrito": "Nervion", "Ciudad": "Sevilla"}},
{"geometry": {"type": "Point", "coordinates": [-5.9472615, 37.3775378]}, "type": "Feature", "properties": {"Web": null, "CIF": null, "Actividad": null, "Direccion": "EVA CERVANTES 13  41012", "Tipo_Entidad": "Fundación", "Nombre": "Fundación cultural privada  cultura andaluza", "Mail": null, "Telefono": null, "Clasificacion_Entidad": null, "Distrito": "Cerro-Amate", "Ciudad": "Sevilla"}},
{"geometry": {"type": "Point", "coordinates": [-5.99991, 37.37856]}, "type": "Feature", "properties": {"Web": null, "CIF": null, "Actividad": null, "Direccion": "AVDA. REPÚBLICA ARGENTINA 13 - ACC B- PTA. 6 41011", "Tipo_Entidad": "Fundación", "Nombre": "Fundación de ayuda contra la drogadicción (f.a.d.)", "Mail": null, "Telefono": null, "Clasificacion_Entidad": null, "Distrito": "Los Remedios", "Ciudad": "Sevilla"}},
{"geometry": {"type": "Point", "coordinates": [-5.953069999999999, 37.39493]}, "type": "Feature", "properties": {"Web": null, "CIF": null, "Actividad": null, "Direccion": "ALVAR NÚÑEZ CABEZA DE VACA 6  41007", "Tipo_Entidad": "Fundación", "Nombre": "Fundación de ayuda docente y laboral para la integración del discapacitado. (f.a.l.d.i.d.)", "Mail": null, "Telefono": null, "Clasificacion_Entidad": null, "Distrito": "San Pablo-Santa Justa", "Ciudad": "Sevilla"}},
{"geometry": {"type": "Point", "coordinates": [-5.9774881, 37.3687128]}, "type": "Feature", "properties": {"Web": null, "CIF": "G78671245", "Actividad": null, "Direccion": "RAMIREZ DE BUSTAMANTE 2 - BAJO 41013", "Tipo_Entidad": "Fundación", "Nombre": "Fundación del valle", "Mail": null, "Telefono": null, "Clasificacion_Entidad": null, "Distrito": "Sur", "Ciudad": "Sevilla"}},
{"geometry": {"type": "Point", "coordinates": [-5.9188414, 37.3875889]}, "type": "Feature", "properties": {"Web": null, "CIF": "V91919563", "Actividad": null, "Direccion": "C/ BALOMPIÉ 6  41020", "Tipo_Entidad": "Fundación", "Nombre": "Fundación delgado montiel", "Mail": null, "Telefono": "659 234 975 954 406 564", "Clasificacion_Entidad": null, "Distrito": "Este", "Ciudad": "Sevilla"}},
{"geometry": {"type": "Point", "coordinates": [-5.9726246, 37.3732248]}, "type": "Feature", "properties": {"Web": null, "CIF": null, "Actividad": null, "Direccion": "ALCALDE JUAN FERNÁNDEZ 31 BAJO 41005", "Tipo_Entidad": "Fundación", "Nombre": "Fundación dif ( desarrollo integral de la familia)", "Mail": null, "Telefono": null, "Clasificacion_Entidad": null, "Distrito": "Sur", "Ciudad": "Sevilla"}},
{"geometry": {"type": "Point", "coordinates": [-5.9819847, 37.3957775]}, "type": "Feature", "properties": {"Web": null, "CIF": "G91045930", "Actividad": null, "Direccion": "SALESIANOS 1 B 41003", "Tipo_Entidad": "Fundación", "Nombre": "Fundación don bosco", "Mail": null, "Telefono": "954 543251", "Clasificacion_Entidad": null, "Distrito": "San Pablo-Santa Justa", "Ciudad": "Sevilla"}},
{"geometry": {"type": "Point", "coordinates": [-5.9820809, 37.3508591]}, "type": "Feature", "properties": {"Web": null, "CIF": "G91167445", "Actividad": null, "Direccion": "AVDA DE ITALIA 9 G  41012", "Tipo_Entidad": "Fundación", "Nombre": "Fundación doña maría fundomar", "Mail": null, "Telefono": "954 708 170  654627075", "Clasificacion_Entidad": null, "Distrito": "Bellavista-La Palmera", "Ciudad": "Sevilla"}},
{"geometry": {"type": "Point", "coordinates": [-5.9831445, 37.3703484]}, "type": "Feature", "properties": {"Web": null, "CIF": "G85167112", "Actividad": null, "Direccion": "FRANCISCO GUERRERO 6 BAJO A 41013", "Tipo_Entidad": "Fundación", "Nombre": "Fundación ecyd", "Mail": null, "Telefono": "6074311155 914456149", "Clasificacion_Entidad": null, "Distrito": "Sur", "Ciudad": "Sevilla"}},
{"geometry": {"type": "Point", "coordinates": [-5.99203, 37.4020296]}, "type": "Feature", "properties": {"Web": null, "CIF": "G60541554", "Actividad": null, "Direccion": "C/ FERIA 151 - BAJO 41002", "Tipo_Entidad": "Fundación", "Nombre": "Fundación educación y cooperación", "Mail": null, "Telefono": "627.559.434 933.001.101", "Clasificacion_Entidad": null, "Distrito": "Casco Antiguo", "Ciudad": "Sevilla"}},
{"geometry": {"type": "Point", "coordinates": [-5.9775158, 37.3478454]}, "type": "Feature", "properties": {"Web": null, "CIF": "G41938077", "Actividad": null, "Direccion": "DRESDE 2  41012", "Tipo_Entidad": "Fundación", "Nombre": "Fundacion empresa social", "Mail": null, "Telefono": null, "Clasificacion_Entidad": null, "Distrito": "Bellavista-La Palmera", "Ciudad": "Sevilla"}},
{"geometry": {"type": "Point", "coordinates": [-5.9727522, 37.4216637]}, "type": "Feature", "properties": {"Web": null, "CIF": "G31825284", "Actividad": null, "Direccion": "C/ PARQUE SIERRA NORTE 1 - PORTAL 1-BAJO J. 41015", "Tipo_Entidad": "Fundación", "Nombre": "Fundación enrique de osso (fundeo)", "Mail": null, "Telefono": "954 950 153 605575473", "Clasificacion_Entidad": null, "Distrito": "Norte", "Ciudad": "Sevilla"}},
{"geometry": {"type": "Point", "coordinates": [-5.97717, 37.38207]}, "type": "Feature", "properties": {"Web": null, "CIF": "G82409020", "Actividad": null, "Direccion": "AVDA. EDUARDO DATO 20 B.- PORTAL A (CENTRO PEDRO ARRUPE) 41018", "Tipo_Entidad": "Fundación", "Nombre": "Fundación entreculturas - fe y alegría", "Mail": null, "Telefono": "954 635 170 915902672", "Clasificacion_Entidad": null, "Distrito": "Nervion", "Ciudad": "Sevilla"}},
{"geometry": {"type": "Point", "coordinates": [-5.994225, 37.398744]}, "type": "Feature", "properties": {"Web": null, "CIF": "G91242511", "Actividad": null, "Direccion": "PZA. ALAMEDA DE HÉRCULES 32 -33 41002", "Tipo_Entidad": "Fundación", "Nombre": "Fundación escuela andaluza de economía social", "Mail": null, "Telefono": "954.812.115 691.424.807", "Clasificacion_Entidad": null, "Distrito": "Casco Antiguo", "Ciudad": "Sevilla"}},
{"geometry": {"type": "Point", "coordinates": [-6.0020566, 37.3736412]}, "type": "Feature", "properties": {"Web": null, "CIF": "G41584426", "Actividad": null, "Direccion": "VIRGEN DEL AGUILA 4 - BAJO 41011", "Tipo_Entidad": "Fundación", "Nombre": "Fundacion escuela superior de las ciencias espirituales", "Mail": null, "Telefono": null, "Clasificacion_Entidad": null, "Distrito": "Los Remedios", "Ciudad": "Sevilla"}},
{"geometry": {"type": "Point", "coordinates": [-5.9573497, 37.3864089]}, "type": "Feature", "properties": {"Web": null, "CIF": "G23633266", "Actividad": null, "Direccion": "JILGUERO 21 B 41006", "Tipo_Entidad": "Fundación", "Nombre": "Fundacion escuelas profesionales de la sagrada familia.safa", "Mail": null, "Telefono": null, "Clasificacion_Entidad": null, "Distrito": "Cerro-Amate", "Ciudad": "Sevilla"}},
{"geometry": {"type": "Point", "coordinates": [-6.006894300000001, 37.3755649]}, "type": "Feature", "properties": {"Web": null, "CIF": null, "Actividad": null, "Direccion": "AVDA. BLAS INFANTE 4 1ª PLANTA 41010", "Tipo_Entidad": "Fundación", "Nombre": "Fundación esculapio", "Mail": null, "Telefono": null, "Clasificacion_Entidad": null, "Distrito": "Triana", "Ciudad": "Sevilla"}},
{"geometry": {"type": "Point", "coordinates": [-5.9722541, 37.37686220000001]}, "type": "Feature", "properties": {"Web": null, "CIF": "G91247072", "Actividad": null, "Direccion": "RAMÓN Y CAJAL 9 EDIF. ISLA ENTREPL. C. 41005", "Tipo_Entidad": "Fundación", "Nombre": "Fundación genus", "Mail": null, "Telefono": null, "Clasificacion_Entidad": null, "Distrito": "Nervion", "Ciudad": "Sevilla"}},
{"geometry": {"type": "Point", "coordinates": [-5.991289999999999, 37.38857]}, "type": "Feature", "properties": {"Web": null, "CIF": "G41945320", "Actividad": null, "Direccion": "MANUEL ROJAS MARCOS 6  41004", "Tipo_Entidad": "Fundación", "Nombre": "Fundacion gota de leche", "Mail": null, "Telefono": null, "Clasificacion_Entidad": null, "Distrito": "Casco Antiguo", "Ciudad": "Sevilla"}},
{"geometry": {"type": "Point", "coordinates": [-5.9786115, 37.3949056]}, "type": "Feature", "properties": {"Web": null, "CIF": "G91067942", "Actividad": null, "Direccion": "C/ PAPA JUAN PABLO I  S/N- PARROQUIA SAN JOAQUÍN 41010", "Tipo_Entidad": "Fundación", "Nombre": "Fundación gracia y paz", "Mail": null, "Telefono": "954 272 003 954-284102", "Clasificacion_Entidad": null, "Distrito": "Triana", "Ciudad": "Sevilla"}},
{"geometry": {"type": "Point", "coordinates": [-5.9293308, 37.4072872]}, "type": "Feature", "properties": {"Web": null, "CIF": "G91891564", "Actividad": null, "Direccion": "ALMENDRALEJO 5  41019", "Tipo_Entidad": "Fundación", "Nombre": "Fundación grupo azvi", "Mail": null, "Telefono": null, "Clasificacion_Entidad": null, "Distrito": "Este", "Ciudad": "Sevilla"}},
{"geometry": {"type": "Point", "coordinates": [-5.985023399999999, 37.3641613]}, "type": "Feature", "properties": {"Web": null, "CIF": "G91663823", "Actividad": null, "Direccion": "AVDA DE LA PALMERA 28 B MODULO 1 41012", "Tipo_Entidad": "Fundación", "Nombre": "Fundación herakles", "Mail": null, "Telefono": "647938284 954708170", "Clasificacion_Entidad": null, "Distrito": "Bellavista-La Palmera", "Ciudad": "Sevilla"}},
{"geometry": {"type": "Point", "coordinates": [-5.9932193, 37.3829734]}, "type": "Feature", "properties": {"Web": null, "CIF": "G91154021", "Actividad": null, "Direccion": "SAN GREGORIO 26  41004", "Tipo_Entidad": "Fundación", "Nombre": "Fundación hermandades del viernes santo tarde", "Mail": null, "Telefono": "954 215927 649662782", "Clasificacion_Entidad": null, "Distrito": "Casco Antiguo", "Ciudad": "Sevilla"}},
{"geometry": {"type": "Point", "coordinates": [-5.98206, 37.3637299]}, "type": "Feature", "properties": {"Web": null, "CIF": null, "Actividad": null, "Direccion": "CONDE DE GALVEZ 7  41013", "Tipo_Entidad": "Fundación", "Nombre": "Fundación hospitalaria de la orden de malta en españa (fhome)", "Mail": null, "Telefono": "954629205 915417065", "Clasificacion_Entidad": null, "Distrito": "Sur", "Ciudad": "Sevilla"}},
{"geometry": {"type": "Point", "coordinates": [-5.9856698, 37.3614165]}, "type": "Feature", "properties": {"Web": null, "CIF": "G81461493", "Actividad": null, "Direccion": "AVENIDA DE REINA MERCEDES 19 A ESCALERA 1 5º 1 41012", "Tipo_Entidad": "Fundación", "Nombre": "Fundación iepala", "Mail": null, "Telefono": null, "Clasificacion_Entidad": null, "Distrito": "Sur", "Ciudad": "Sevilla"}},
{"geometry": {"type": "Point", "coordinates": [-5.9907978, 37.4038471]}, "type": "Feature", "properties": {"Web": null, "CIF": null, "Actividad": null, "Direccion": "TORRIJANO 15  41009", "Tipo_Entidad": "Fundación", "Nombre": "Fundación intered (ongd)", "Mail": null, "Telefono": null, "Clasificacion_Entidad": null, "Distrito": "Macarena", "Ciudad": "Sevilla"}},
{"geometry": {"type": "Point", "coordinates": [-5.9941187, 37.3856323]}, "type": "Feature", "properties": {"Web": null, "CIF": null, "Actividad": null, "Direccion": "AVDA. DE LA CONSTITUCIÓN 24 - PASAJE LOS SEISES 41001", "Tipo_Entidad": "Fundación", "Nombre": "Fundación itálica de estudios clásicos.", "Mail": null, "Telefono": null, "Clasificacion_Entidad": null, "Distrito": "Casco Antiguo", "Ciudad": "Sevilla"}},
{"geometry": {"type": "Point", "coordinates": [-5.993824699999999, 37.3910177]}, "type": "Feature", "properties": {"Web": null, "CIF": null, "Actividad": null, "Direccion": "CERRAJERIA 11  41004", "Tipo_Entidad": "Fundación", "Nombre": "Fundación jorge queralto", "Mail": null, "Telefono": null, "Clasificacion_Entidad": null, "Distrito": "Casco Antiguo", "Ciudad": "Sevilla"}},
{"geometry": {"type": "Point", "coordinates": [-5.998039899999999, 37.39361]}, "type": "Feature", "properties": {"Web": null, "CIF": "G99002412", "Actividad": null, "Direccion": "C/ JESÚS DE LA VERA-CRUZ 10  41002", "Tipo_Entidad": "Fundación", "Nombre": "Fundación manuel maría vicuña", "Mail": null, "Telefono": "954.217.301 91.446.94.66", "Clasificacion_Entidad": null, "Distrito": "Casco Antiguo", "Ciudad": "Sevilla"}},
{"geometry": {"type": "Point", "coordinates": [-5.9681872, 37.3876781]}, "type": "Feature", "properties": {"Web": null, "CIF": "G11408606", "Actividad": null, "Direccion": "C/ LUÍS MONTOTO 133 - CAI RESIDENCIA TORIBIO VELASCO 41007", "Tipo_Entidad": "Fundación", "Nombre": "Fundacion margenes y vinculos", "Mail": null, "Telefono": "600 405 348 956 628 089", "Clasificacion_Entidad": null, "Distrito": "San Pablo-Santa Justa", "Ciudad": "Sevilla"}},
{"geometry": {"type": "Point", "coordinates": [-5.9972733, 37.3882205]}, "type": "Feature", "properties": {"Web": null, "CIF": "G91041441", "Actividad": null, "Direccion": "ZARAGOZA 36  41001", "Tipo_Entidad": "Fundación", "Nombre": "Fundación maría fulmen", "Mail": null, "Telefono": null, "Clasificacion_Entidad": null, "Distrito": "Casco Antiguo", "Ciudad": "Sevilla"}},
{"geometry": {"type": "Point", "coordinates": [-5.977522899999999, 37.3579137]}, "type": "Feature", "properties": {"Web": null, "CIF": null, "Actividad": null, "Direccion": "BAMI 33  41013", "Tipo_Entidad": "Fundación", "Nombre": "Fundación mary ward", "Mail": null, "Telefono": "954 223151", "Clasificacion_Entidad": null, "Distrito": "Bellavista-La Palmera", "Ciudad": "Sevilla"}},
{"geometry": {"type": "Point", "coordinates": [-5.993495999999999, 37.3978404]}, "type": "Feature", "properties": {"Web": null, "CIF": "G91483933", "Actividad": null, "Direccion": "ALAMEDA DE HÉRCULES 86 4 AB 41002", "Tipo_Entidad": "Fundación", "Nombre": "Fundación matria", "Mail": null, "Telefono": "954900683 616501808", "Clasificacion_Entidad": null, "Distrito": "Casco Antiguo", "Ciudad": "Sevilla"}},
{"geometry": {"type": "Point", "coordinates": [-5.9794844, 37.3866778]}, "type": "Feature", "properties": {"Web": null, "CIF": null, "Actividad": null, "Direccion": "JOSÉ DE LA CÁMARA 5 - 1º PLANTA 41018", "Tipo_Entidad": "Fundación", "Nombre": "Fundación montepíos de andalucía.", "Mail": null, "Telefono": null, "Clasificacion_Entidad": null, "Distrito": "Nervion", "Ciudad": "Sevilla"}},
{"geometry": {"type": "Point", "coordinates": [-5.970830599999999, 37.3796212]}, "type": "Feature", "properties": {"Web": null, "CIF": "G41904608", "Actividad": null, "Direccion": "ESPINOSA Y C-RCEL 26  41005", "Tipo_Entidad": "Fundación", "Nombre": "Fundacion mornese", "Mail": null, "Telefono": null, "Clasificacion_Entidad": null, "Distrito": "Nervion", "Ciudad": "Sevilla"}},
{"geometry": {"type": "Point", "coordinates": [-5.997800499999999, 37.3976]}, "type": "Feature", "properties": {"Web": null, "CIF": "G91665232", "Actividad": null, "Direccion": "PLAZA DE LA CONCORDIA S/N SALA SAN HERMENEGILDO 41002", "Tipo_Entidad": "Fundación", "Nombre": "Fundación museo atarazanas", "Mail": null, "Telefono": null, "Clasificacion_Entidad": null, "Distrito": "Casco Antiguo", "Ciudad": "Sevilla"}},
{"geometry": {"type": "Point", "coordinates": [-5.9847589, 37.3722489]}, "type": "Feature", "properties": {"Web": null, "CIF": "G91612507", "Actividad": null, "Direccion": "C/ PROGRESO 20 - 2º DCHA. 41013", "Tipo_Entidad": "Fundación", "Nombre": "Fundación nao victoria", "Mail": null, "Telefono": "954.090.956 666.553.273", "Clasificacion_Entidad": null, "Distrito": "Sur", "Ciudad": "Sevilla"}},
{"geometry": {"type": "Point", "coordinates": [-5.986736199999999, 37.3839078]}, "type": "Feature", "properties": {"Web": null, "CIF": "G90057381", "Actividad": null, "Direccion": "AVDA. MENÉNDEZ PELAYO 20 ; 4ª 41004", "Tipo_Entidad": "Fundación", "Nombre": "Fundación new health", "Mail": null, "Telefono": null, "Clasificacion_Entidad": null, "Distrito": "Nervion", "Ciudad": "Sevilla"}},
{"geometry": {"type": "Point", "coordinates": [-5.9856943, 37.4017426]}, "type": "Feature", "properties": {"Web": null, "CIF": "G91817924", "Actividad": null, "Direccion": "C/ MUÑOZ LEÓN 9  41009", "Tipo_Entidad": "Fundación", "Nombre": "Fundación odontología social luis seiquer", "Mail": null, "Telefono": "676.784.937 610.254.527", "Clasificacion_Entidad": null, "Distrito": "Macarena", "Ciudad": "Sevilla"}},
{"geometry": {"type": "Point", "coordinates": [-5.9735786, 37.3758022]}, "type": "Feature", "properties": {"Web": null, "CIF": "G79069746", "Actividad": null, "Direccion": "PLAZA DEL ALJARAFE 14 - 3ª PLANTA 41005", "Tipo_Entidad": "Fundación", "Nombre": "Fundación para el desarrollo de la enfermería (fuden)", "Mail": null, "Telefono": null, "Clasificacion_Entidad": null, "Distrito": "Sur", "Ciudad": "Sevilla"}},
{"geometry": {"type": "Point", "coordinates": [-5.9852786, 37.3731144]}, "type": "Feature", "properties": {"Web": null, "CIF": "G41891482", "Actividad": null, "Direccion": "AVDA. DE LA BORBOLLA 47  41013", "Tipo_Entidad": "Fundación", "Nombre": "Fundacion para la coop. internacional dr. manuel madrazo", "Mail": null, "Telefono": null, "Clasificacion_Entidad": null, "Distrito": "Sur", "Ciudad": "Sevilla"}},
{"geometry": {"type": "Point", "coordinates": [-5.9139053, 37.4087417]}, "type": "Feature", "properties": {"Web": null, "CIF": "G41553561", "Actividad": null, "Direccion": "AVDA. REPÚBLICA DE CHINA 34  41020", "Tipo_Entidad": "Fundación", "Nombre": "Fundación para la cooperación apy-solidaridad en acción", "Mail": null, "Telefono": null, "Clasificacion_Entidad": null, "Distrito": "Este", "Ciudad": "Sevilla"}},
{"geometry": {"type": "Point", "coordinates": [-6.002949399999999, 37.3885569]}, "type": "Feature", "properties": {"Web": null, "CIF": "G41923145", "Actividad": null, "Direccion": "ARJONA 14 - LOCAL  24 41001", "Tipo_Entidad": "Fundación", "Nombre": "Fundación para la promoción, desarrollo  y proteccion de las personas mayores (fundema)", "Mail": null, "Telefono": null, "Clasificacion_Entidad": null, "Distrito": "Casco Antiguo", "Ciudad": "Sevilla"}},
{"geometry": {"type": "Point", "coordinates": [-5.9578, 37.4024]}, "type": "Feature", "properties": {"Web": null, "CIF": "G91872838", "Actividad": null, "Direccion": "C/ MACEDONIA 4 - 5º A 41007", "Tipo_Entidad": "Fundación", "Nombre": "Fundación pasión y compromiso", "Mail": null, "Telefono": "954.405.011 639.218.379", "Clasificacion_Entidad": null, "Distrito": "San Pablo-Santa Justa", "Ciudad": "Sevilla"}},
{"geometry": {"type": "Point", "coordinates": [-5.995563, 37.3937377]}, "type": "Feature", "properties": {"Web": null, "CIF": "G41627001", "Actividad": null, "Direccion": "C/ TRAJANO 1 - 6º 41002", "Tipo_Entidad": "Fundación", "Nombre": "Fundación paz y solidaridad andalucía", "Mail": null, "Telefono": "954 507 012 954225704", "Clasificacion_Entidad": null, "Distrito": "Casco Antiguo", "Ciudad": "Sevilla"}},
{"geometry": {"type": "Point", "coordinates": [-5.9832725, 37.384222]}, "type": "Feature", "properties": {"Web": null, "CIF": "G82585787", "Actividad": null, "Direccion": "C/ SAN BERNARDO 4  41018", "Tipo_Entidad": "Fundación", "Nombre": "Fundación pequeño deseo", "Mail": null, "Telefono": "954.425.840 649.994.402", "Clasificacion_Entidad": null, "Distrito": "Nervion", "Ciudad": "Sevilla"}},
{"geometry": {"type": "Point", "coordinates": [-5.9926471, 37.40692680000001]}, "type": "Feature", "properties": {"Web": null, "CIF": "G62627450", "Actividad": null, "Direccion": "AVICENA 39 2- 1º A 41009", "Tipo_Entidad": "Fundación", "Nombre": "Fundación privada ojos del mundo (ulls del mon)", "Mail": null, "Telefono": "699.469.360 934.515.152 954.404.524", "Clasificacion_Entidad": null, "Distrito": "Macarena", "Ciudad": "Sevilla"}},
{"geometry": {"type": "Point", "coordinates": [-5.9855844, 37.3989839]}, "type": "Feature", "properties": {"Web": null, "CIF": null, "Actividad": null, "Direccion": "SAN JULIAN 9 1º B 41003", "Tipo_Entidad": "Fundación", "Nombre": "Fundación privada vipassana", "Mail": null, "Telefono": null, "Clasificacion_Entidad": null, "Distrito": "Casco Antiguo", "Ciudad": "Sevilla"}},
{"geometry": {"type": "Point", "coordinates": [-5.974969700000001, 37.3952669]}, "type": "Feature", "properties": {"Web": null, "CIF": null, "Actividad": null, "Direccion": "AVDA. PEDRO ROMERO CASA DE LA TRINIDAD 12  29200", "Tipo_Entidad": "Fundación", "Nombre": "Fundación prolibertas", "Mail": null, "Telefono": null, "Clasificacion_Entidad": null, "Distrito": "San Pablo-Santa Justa", "Ciudad": "Sevilla"}},
{"geometry": {"type": "Point", "coordinates": [-5.986441399999999, 37.3824443]}, "type": "Feature", "properties": {"Web": null, "CIF": null, "Actividad": null, "Direccion": "CTRA. DE MÁLAGA.- KM. 1   41016", "Tipo_Entidad": "Fundación", "Nombre": "Fundación psicopediatria de sevilla.", "Mail": null, "Telefono": "954253085 666543189", "Clasificacion_Entidad": null, "Distrito": "Este", "Ciudad": "Sevilla"}},
{"geometry": {"type": "Point", "coordinates": [-5.97935, 37.38106]}, "type": "Feature", "properties": {"Web": null, "CIF": "G83844316", "Actividad": null, "Direccion": "AVDA. DE LA BUHAIRA 31  41018", "Tipo_Entidad": "Fundación", "Nombre": "Fundacion randstad", "Mail": null, "Telefono": "618 308 151 914 906 211", "Clasificacion_Entidad": null, "Distrito": "Nervion", "Ciudad": "Sevilla"}},
{"geometry": {"type": "Point", "coordinates": [-5.9642047, 37.3825039]}, "type": "Feature", "properties": {"Web": null, "CIF": "G83117374", "Actividad": null, "Direccion": "DUQUE DE RIVAS 1 - LOCAL 41005", "Tipo_Entidad": "Fundación", "Nombre": "Fundación secretariado general gitano.", "Mail": null, "Telefono": null, "Clasificacion_Entidad": null, "Distrito": "Nervion", "Ciudad": "Sevilla"}},
{"geometry": {"type": "Point", "coordinates": [-5.9771228, 37.3875985]}, "type": "Feature", "properties": {"Web": null, "CIF": null, "Actividad": null, "Direccion": "SAN FLORENCIO 2  41018", "Tipo_Entidad": "Fundación", "Nombre": "Fundación sembrando futuro", "Mail": null, "Telefono": "954150880 607726394", "Clasificacion_Entidad": null, "Distrito": "Nervion", "Ciudad": "Sevilla"}},
{"geometry": {"type": "Point", "coordinates": [-5.9765427, 37.3505079]}, "type": "Feature", "properties": {"Web": null, "CIF": null, "Actividad": null, "Direccion": "AVDA. DE JEREZ 5 - EDIFICIO REINA VICTORIA 2- 2ª  E 41012", "Tipo_Entidad": "Fundación", "Nombre": "Fundación servicios de educación y cooperación internacional para el desarrollo secoide", "Mail": null, "Telefono": null, "Clasificacion_Entidad": null, "Distrito": "Bellavista-La Palmera", "Ciudad": "Sevilla"}},
{"geometry": {"type": "Point", "coordinates": [-6.005381, 37.3904806]}, "type": "Feature", "properties": {"Web": null, "CIF": "G91545863", "Actividad": null, "Direccion": "AVDA. CRISTO DE LA EXPIRACIÓN S/N   41001", "Tipo_Entidad": "Fundación", "Nombre": "Fundación sevilla acoge", "Mail": null, "Telefono": null, "Clasificacion_Entidad": null, "Distrito": "Casco Antiguo", "Ciudad": "Sevilla"}},
{"geometry": {"type": "Point", "coordinates": [-5.9875593, 37.371788]}, "type": "Feature", "properties": {"Web": null, "CIF": null, "Actividad": null, "Direccion": "PABELLÓN REAL PLAZA DE AMÉRICA   41013", "Tipo_Entidad": "Fundación", "Nombre": "Fundación sevilla nodo entre oriente y occidente", "Mail": null, "Telefono": null, "Clasificacion_Entidad": null, "Distrito": "Sur", "Ciudad": "Sevilla"}},
{"geometry": {"type": "Point", "coordinates": [-5.9814244, 37.4275517]}, "type": "Feature", "properties": {"Web": null, "CIF": "G91812776", "Actividad": null, "Direccion": "MEDINA Y GALNARES S/N  41015", "Tipo_Entidad": "Fundación", "Nombre": "Fundación solas", "Mail": null, "Telefono": null, "Clasificacion_Entidad": null, "Distrito": "Norte", "Ciudad": "Sevilla"}},
{"geometry": {"type": "Point", "coordinates": [-5.9728333, 37.3637852]}, "type": "Feature", "properties": {"Web": null, "CIF": null, "Actividad": null, "Direccion": "MANZANILLA BLOQUE 5 6 9º B 41013", "Tipo_Entidad": "Fundación", "Nombre": "Fundación solem", "Mail": null, "Telefono": null, "Clasificacion_Entidad": null, "Distrito": "Sur", "Ciudad": "Sevilla"}},
{"geometry": {"type": "Point", "coordinates": [-5.955669100000001, 37.3817934]}, "type": "Feature", "properties": {"Web": null, "CIF": "G91851386", "Actividad": null, "Direccion": "PLAZA DE LA CANDELARIA  S/N. PARROQUIA NTRA. SRA. DE LA CANDELARIA 41006", "Tipo_Entidad": "Fundación", "Nombre": "Fundación solidaridad candelaria", "Mail": null, "Telefono": "954 255 432", "Clasificacion_Entidad": null, "Distrito": "Cerro-Amate", "Ciudad": "Sevilla"}},
{"geometry": {"type": "Point", "coordinates": [-6.0001558, 37.3784785]}, "type": "Feature", "properties": {"Web": null, "CIF": "G80956733", "Actividad": null, "Direccion": "AVDA. REPÚBLICA ARGENTINA 15 - 5º B 41010", "Tipo_Entidad": "Fundación", "Nombre": "Fundación tierra de hombres", "Mail": null, "Telefono": null, "Clasificacion_Entidad": null, "Distrito": "Los Remedios", "Ciudad": "Sevilla"}},
{"geometry": {"type": "Point", "coordinates": [-5.99578, 37.4019801]}, "type": "Feature", "properties": {"Web": null, "CIF": "G81393548", "Actividad": null, "Direccion": "C/ YUSTE 9 - BAJO 41002", "Tipo_Entidad": "Fundación", "Nombre": "Fundación triángulo andalucía", "Mail": null, "Telefono": "954.218.082 661.010.173", "Clasificacion_Entidad": null, "Distrito": "Casco Antiguo", "Ciudad": "Sevilla"}},
{"geometry": {"type": "Point", "coordinates": [-5.9798921, 37.3869617]}, "type": "Feature", "properties": {"Web": null, "CIF": "G41921057", "Actividad": null, "Direccion": "C/ MANUEL HALCÓN 6 - LOCAL A. ACC. 41018", "Tipo_Entidad": "Fundación", "Nombre": "Fundación tutelar nadir", "Mail": null, "Telefono": "600 554 098 954418998", "Clasificacion_Entidad": null, "Distrito": "Nervion", "Ciudad": "Sevilla"}},
{"geometry": {"type": "Point", "coordinates": [-5.9839258, 37.4011556]}, "type": "Feature", "properties": {"Web": null, "CIF": "G41664459", "Actividad": null, "Direccion": "C/ LEÓN XIII 9B ; ACC. A 41009", "Tipo_Entidad": "Fundación", "Nombre": "Fundacion tutelar tau", "Mail": null, "Telefono": null, "Clasificacion_Entidad": null, "Distrito": "Macarena", "Ciudad": "Sevilla"}},
{"geometry": {"type": "Point", "coordinates": [-5.9673967, 37.3552204]}, "type": "Feature", "properties": {"Web": null, "CIF": "G91094235", "Actividad": null, "Direccion": "RESIDENCIA UNIVERSITARIA FLORA TRISTÁN  C/ MADRE TERESA DE CALCUTA S/N 41013", "Tipo_Entidad": "Fundación", "Nombre": "Fundación universidad-sociedad pablo de olavide", "Mail": null, "Telefono": "954.349.081  954349369", "Clasificacion_Entidad": null, "Distrito": "Sur", "Ciudad": "Sevilla"}},
{"geometry": {"type": "Point", "coordinates": [-5.9899751, 37.3918705]}, "type": "Feature", "properties": {"Web": null, "CIF": null, "Actividad": null, "Direccion": "PLAZA CRISTO DE BURGOS 29  41004", "Tipo_Entidad": "Fundación", "Nombre": "Fundacion verbum, para el lenguaje y la comunicación", "Mail": null, "Telefono": null, "Clasificacion_Entidad": null, "Distrito": "Casco Antiguo", "Ciudad": "Sevilla"}},
{"geometry": {"type": "Point", "coordinates": [-5.9805586, 37.3926535]}, "type": "Feature", "properties": {"Web": null, "CIF": "G09326745", "Actividad": null, "Direccion": "AVDA. JOSÉ LAGUILLO 20 - LOCAL 41003", "Tipo_Entidad": "Fundación", "Nombre": "Fundación vicente ferrer", "Mail": null, "Telefono": "954410453 934190268", "Clasificacion_Entidad": null, "Distrito": "San Pablo-Santa Justa", "Ciudad": "Sevilla"}},
{"geometry": {"type": "Point", "coordinates": [-5.997879999999999, 37.3725475]}, "type": "Feature", "properties": {"Web": null, "CIF": "F91093120", "Actividad": "Agropecuarias", "Direccion": "VIRGEN DE LA CINTA, Nº 20.", "Tipo_Entidad": "Cooperativa", "Nombre": "Grupo jel romani, s. coop. and.", "Mail": null, "Telefono": null, "Clasificacion_Entidad": "SOCIEDADES COOPERATIVAS DE TRABAJO", "Distrito": "Los Remedios", "Ciudad": "Sevilla"}},
{"geometry": {"type": "Point", "coordinates": [-5.9581781, 37.3697938]}, "type": "Feature", "properties": {"Web": null, "CIF": "F90157785", "Actividad": "Agropecuarias", "Direccion": "cristo del desamparo y abandono", "Tipo_Entidad": "Cooperativa", "Nombre": "Chichurri s.coop.and.", "Mail": null, "Telefono": null, "Clasificacion_Entidad": "SOCIEDADES COOPERATIVAS DE TRABAJO", "Distrito": "Cerro-Amate", "Ciudad": "Sevilla"}},
{"geometry": {"type": "Point", "coordinates": [-5.9469484, 37.370465]}, "type": "Feature", "properties": {"Web": null, "CIF": "F91031229", "Actividad": "Agropecuarias", "Direccion": "VASCO DE GAMA, 98  INGENIERO LA CIERVA", "Tipo_Entidad": "Cooperativa", "Nombre": "Alcalareña de ovino y caprino, sociedad cooperativa andaluza", "Mail": null, "Telefono": null, "Clasificacion_Entidad": "SOCIEDADES COOPERATIVAS DE TRABAJO", "Distrito": "Cerro-Amate", "Ciudad": "Sevilla"}},
{"geometry": {"type": "Point", "coordinates": [-5.9556745, 37.3972686]}, "type": "Feature", "properties": {"Web": null, "CIF": "F90254301", "Actividad": "Agropecuarias", "Direccion": "ANTIOQUIA", "Tipo_Entidad": "Cooperativa", "Nombre": "Centro integrado de paisajismo y agroecología, s.coop.and", "Mail": null, "Telefono": null, "Clasificacion_Entidad": "SOCIEDADES COOPERATIVAS DE TRABAJO", "Distrito": "San Pablo-Santa Justa", "Ciudad": "Sevilla"}},
{"geometry": {"type": "Point", "coordinates": [-5.9408731, 37.4395969]}, "type": "Feature", "properties": {"Web": null, "CIF": "F91187773", "Actividad": "Agropecuarias", "Direccion": "MIRTO, 6", "Tipo_Entidad": "Cooperativa", "Nombre": "Cooperativa agricola hnos. navio, s. coop. and.", "Mail": null, "Telefono": null, "Clasificacion_Entidad": "SOCIEDADES COOPERATIVAS DE TRABAJO", "Distrito": "Macarena", "Ciudad": "Sevilla"}},
{"geometry": {"type": "Point", "coordinates": [-5.9796721, 37.413727]}, "type": "Feature", "properties": {"Web": null, "CIF": null, "Actividad": "Industrial/artesanal", "Direccion": "C/ MOGUER, Nº1  - 1ºB", "Tipo_Entidad": "Cooperativa", "Nombre": "Codespollo, sociedad cooperativa andaluza", "Mail": null, "Telefono": null, "Clasificacion_Entidad": "SOCIEDADES COOPERATIVAS DE TRABAJO", "Distrito": "Macarena", "Ciudad": "Sevilla"}},
{"geometry": {"type": "Point", "coordinates": [-5.993394599999999, 37.3989437]}, "type": "Feature", "properties": {"Web": null, "CIF": null, "Actividad": "Industrial/artesanal", "Direccion": "ALAMEDA DE HERCULES 32-33", "Tipo_Entidad": "Cooperativa", "Nombre": "El obrador s.coop.and.", "Mail": null, "Telefono": null, "Clasificacion_Entidad": "SOCIEDADES COOPERATIVAS DE TRABAJO", "Distrito": "Casco Antiguo", "Ciudad": "Sevilla"}},
{"geometry": {"type": "Point", "coordinates": [-5.9827226, 37.4286179]}, "type": "Feature", "properties": {"Web": null, "CIF": "F9138710", "Actividad": "Industrial/artesanal", "Direccion": "CL COQUINA, Nº 22", "Tipo_Entidad": "Cooperativa", "Nombre": "Vanenohe, sociedad cooperativa andaluza", "Mail": null, "Telefono": null, "Clasificacion_Entidad": "SOCIEDADES COOPERATIVAS DE TRABAJO", "Distrito": "Norte", "Ciudad": "Sevilla"}},
{"geometry": {"type": "Point", "coordinates": [-5.993394599999999, 37.3989437]}, "type": "Feature", "properties": {"Web": null, "CIF": "F91367706", "Actividad": "Industrial/artesanal", "Direccion": "ALAMEDA DE HERCULES 32-33, 1º IZQ.", "Tipo_Entidad": "Cooperativa", "Nombre": "Fritole, s. coop. and.", "Mail": null, "Telefono": null, "Clasificacion_Entidad": "SOCIEDADES COOPERATIVAS DE TRABAJO", "Distrito": "Casco Antiguo", "Ciudad": "Sevilla"}},
{"geometry": {"type": "Point", "coordinates": [-5.9681397, 37.3834102]}, "type": "Feature", "properties": {"Web": null, "CIF": "F91828509", "Actividad": "Industrial/artesanal", "Direccion": "C/ MARQUÉS DEL NERVIÓN Nº 39", "Tipo_Entidad": "Cooperativa", "Nombre": "A2, vino y cultura, s.coop.and.", "Mail": "info@a2vinoycultura.com", "Telefono": null, "Clasificacion_Entidad": "SOCIEDADES COOPERATIVAS DE TRABAJO", "Distrito": "Nervión", "Ciudad": "Sevilla"}},
{"geometry": {"type": "Point", "coordinates": [-5.982927399999999, 37.4113108]}, "type": "Feature", "properties": {"Web": null, "CIF": "F91179424", "Actividad": "Comercio al por mayor/distribucion", "Direccion": "C/ DOCTOR MOROTE CALAFACH, Nº 3, ESCALERA 20, PISO 4º D", "Tipo_Entidad": "Cooperativa", "Nombre": "Sholly - t - afro shop, s. coop. and.", "Mail": null, "Telefono": null, "Clasificacion_Entidad": "SOCIEDADES COOPERATIVAS DE TRABAJO", "Distrito": "Macarena", "Ciudad": "Sevilla"}},
{"geometry": {"type": "Point", "coordinates": [-5.9728562, 37.4186006]}, "type": "Feature", "properties": {"Web": null, "CIF": "F91148007", "Actividad": "Comercio al por mayor/distribucion", "Direccion": "C/ PARQUE DE DOÑANA 16, 2º D", "Tipo_Entidad": "Cooperativa", "Nombre": "Franjo promociones, s. coop. and.", "Mail": null, "Telefono": null, "Clasificacion_Entidad": "SOCIEDADES COOPERATIVAS DE TRABAJO", "Distrito": "Macarena", "Ciudad": "Sevilla"}},
{"geometry": {"type": "Point", "coordinates": [-5.9787906, 37.3757803]}, "type": "Feature", "properties": {"Web": null, "CIF": "F91512160", "Actividad": "Comercio al por mayor/distribucion", "Direccion": "RECTOR CANDIL, 3. BQ. 2. 5º A", "Tipo_Entidad": "Cooperativa", "Nombre": "Fajardo y muñiz, s.coop.and.", "Mail": null, "Telefono": null, "Clasificacion_Entidad": "SOCIEDADES COOPERATIVAS DE TRABAJO", "Distrito": "Polígono Sur", "Ciudad": "Sevilla"}},
{"geometry": {"type": "Point", "coordinates": [-5.9175508, 37.3749086]}, "type": "Feature", "properties": {"Web": null, "CIF": "F91893982", "Actividad": "Comercio al por mayor/distribucion", "Direccion": "PARSI 12, Nº 15", "Tipo_Entidad": "Cooperativa", "Nombre": "Viandalucia, s.coop.and.", "Mail": null, "Telefono": null, "Clasificacion_Entidad": "SOCIEDADES COOPERATIVAS DE TRABAJO", "Distrito": "Norte", "Ciudad": "Sevilla"}},
{"geometry": {"type": "Point", "coordinates": [-5.9625863, 37.3723692]}, "type": "Feature", "properties": {"Web": null, "CIF": "F91021972", "Actividad": "Comercio al por mayor/distribucion", "Direccion": "AVDA. DE HYTASA, 23  3º C", "Tipo_Entidad": "Cooperativa", "Nombre": "Terraclara, s. coop. and.", "Mail": null, "Telefono": null, "Clasificacion_Entidad": "SOCIEDADES COOPERATIVAS DE TRABAJO", "Distrito": "Cerro-Amate", "Ciudad": "Sevilla"}},
{"geometry": {"type": "Point", "coordinates": [-5.982857999999999, 37.4226149]}, "type": "Feature", "properties": {"Web": null, "CIF": "F91065052", "Actividad": "Comercio al por mayor/distribucion", "Direccion": "C/ MEDINA Y GALNARES, 19", "Tipo_Entidad": "Cooperativa", "Nombre": "S. coop.and. decoam,  desarrollo del comercio ambulante", "Mail": null, "Telefono": null, "Clasificacion_Entidad": "SOCIEDADES COOPERATIVAS DE TRABAJO", "Distrito": "Norte", "Ciudad": "Sevilla"}},
{"geometry": {"type": "Point", "coordinates": [-5.982857999999999, 37.4226149]}, "type": "Feature", "properties": {"Web": null, "CIF": null, "Actividad": "Comercio al por mayor/distribucion", "Direccion": "C/MEDINA Y GALNARES, Nº 19", "Tipo_Entidad": "Cooperativa", "Nombre": "Gm- gestión de mercados s. coop. and.", "Mail": null, "Telefono": null, "Clasificacion_Entidad": "SOCIEDADES COOPERATIVAS DE TRABAJO", "Distrito": "Norte", "Ciudad": "Sevilla"}},
{"geometry": {"type": "Point", "coordinates": [-5.982641, 37.391621]}, "type": "Feature", "properties": {"Web": null, "CIF": null, "Actividad": "Comercio al por mayor/distribucion", "Direccion": "C/ JÚPITER 8C, BAJO DERECHA", "Tipo_Entidad": "Cooperativa", "Nombre": "El mocho, s.coop.and.", "Mail": null, "Telefono": null, "Clasificacion_Entidad": "SOCIEDADES COOPERATIVAS DE TRABAJO", "Distrito": "Casco Antiguo", "Ciudad": "Sevilla"}},
{"geometry": {"type": "Point", "coordinates": [-5.96795, 37.39617]}, "type": "Feature", "properties": {"Web": null, "CIF": "F91350876", "Actividad": "Industrial/artesanal", "Direccion": "AVDA. KANSAS CITY Nº 51", "Tipo_Entidad": "Cooperativa", "Nombre": "Casdecor, sociedad cooperativa andaluza", "Mail": null, "Telefono": null, "Clasificacion_Entidad": "SOCIEDADES COOPERATIVAS DE TRABAJO", "Distrito": "San Pablo-Santa Justa", "Ciudad": "Sevilla"}},
{"geometry": {"type": "Point", "coordinates": [-5.9511286, 37.36616100000001]}, "type": "Feature", "properties": {"Web": null, "CIF": "F91100008", "Actividad": "Comercio al por mayor/distribucion", "Direccion": "AVDA. HEROES DE TOLEDO, 23  3º C", "Tipo_Entidad": "Cooperativa", "Nombre": "Hnos donaire garcia, s. coop. and.", "Mail": null, "Telefono": null, "Clasificacion_Entidad": "SOCIEDADES COOPERATIVAS DE TRABAJO", "Distrito": "Cerro-Amate", "Ciudad": "Sevilla"}},
{"geometry": {"type": "Point", "coordinates": [-5.9949562, 37.3939067]}, "type": "Feature", "properties": {"Web": null, "CIF": "F41504267", "Actividad": "Comercio al por mayor/distribucion", "Direccion": "AMOR DE DIOS, Nº 7", "Tipo_Entidad": "Cooperativa", "Nombre": "Lialybar, s.coop.and.", "Mail": null, "Telefono": null, "Clasificacion_Entidad": "SOCIEDADES COOPERATIVAS DE TRABAJO", "Distrito": "Casco Antiguo", "Ciudad": "Sevilla"}},
{"geometry": {"type": "Point", "coordinates": [-5.9849401, 37.3909306]}, "type": "Feature", "properties": {"Web": null, "CIF": "F91067512", "Actividad": "Comercio al por mayor/distribucion", "Direccion": "C/ CONDE NEGRO 13, 1º A", "Tipo_Entidad": "Cooperativa", "Nombre": "Distribuciones paragon, s. coop. and.", "Mail": null, "Telefono": null, "Clasificacion_Entidad": "SOCIEDADES COOPERATIVAS DE TRABAJO", "Distrito": "Casco Antiguo", "Ciudad": "Sevilla"}},
{"geometry": {"type": "Point", "coordinates": [-5.972279899999999, 37.40044]}, "type": "Feature", "properties": {"Web": null, "CIF": "F91082040", "Actividad": "Comercio al por mayor/distribucion", "Direccion": "C/ RAFAEL LAFFON, Nº 10. 9º B-1", "Tipo_Entidad": "Cooperativa", "Nombre": "Distribuciones elim, s. coop. and.", "Mail": null, "Telefono": null, "Clasificacion_Entidad": "SOCIEDADES COOPERATIVAS DE TRABAJO", "Distrito": "Macarena", "Ciudad": "Sevilla"}},
{"geometry": {"type": "Point", "coordinates": [-5.9669422, 37.4240461]}, "type": "Feature", "properties": {"Web": null, "CIF": "F41955576", "Actividad": "Comercio al por mayor/distribucion", "Direccion": "C/ ESTRELLA MIRA 8", "Tipo_Entidad": "Cooperativa", "Nombre": "Alemar tres sevilla, s. coop. and.", "Mail": null, "Telefono": null, "Clasificacion_Entidad": "SOCIEDADES COOPERATIVAS DE TRABAJO", "Distrito": "Norte", "Ciudad": "Sevilla"}},
{"geometry": {"type": "Point", "coordinates": [-5.977268, 37.3969345]}, "type": "Feature", "properties": {"Web": null, "CIF": "F41094905", "Actividad": "Comercio al por mayor/distribucion", "Direccion": "CALLE ARROYO Nº72", "Tipo_Entidad": "Cooperativa", "Nombre": "Salesur, s.coop.and.", "Mail": "salesur.sevilla@gmail.com", "Telefono": null, "Clasificacion_Entidad": "SOCIEDADES COOPERATIVAS DE TRABAJO", "Distrito": "Macarena", "Ciudad": "Sevilla"}},
{"geometry": {"type": "Point", "coordinates": [-5.989353700000001, 37.3904236]}, "type": "Feature", "properties": {"Web": null, "CIF": "F90055732", "Actividad": "Comercio al por mayor/distribucion", "Direccion": "Cabeza del Rey Don Pedro", "Tipo_Entidad": "Cooperativa", "Nombre": "Hilos con arte, s coop.and.", "Mail": null, "Telefono": null, "Clasificacion_Entidad": "SOCIEDADES COOPERATIVAS DE TRABAJO", "Distrito": "Casco Antiguo", "Ciudad": "Sevilla"}},
{"geometry": {"type": "Point", "coordinates": [-5.9908866, 37.3999934]}, "type": "Feature", "properties": {"Web": null, "CIF": "F91145037", "Actividad": "Industrial/artesanal", "Direccion": "AMARGURA Nº 8  BAJO", "Tipo_Entidad": "Cooperativa", "Nombre": "Cooperativa estelar, s. coop. and.", "Mail": null, "Telefono": null, "Clasificacion_Entidad": "SOCIEDADES COOPERATIVAS DE TRABAJO", "Distrito": "Macarena", "Ciudad": "Sevilla"}},
{"geometry": {"type": "Point", "coordinates": [-5.961333199999999, 37.37551699999999]}, "type": "Feature", "properties": {"Web": null, "CIF": "F91858977", "Actividad": "Comercio al por mayor/distribucion", "Direccion": "MODESTO ABIN", "Tipo_Entidad": "Cooperativa", "Nombre": "Conductores electricos enerflex s. coop. and.", "Mail": null, "Telefono": null, "Clasificacion_Entidad": "SOCIEDADES COOPERATIVAS DE TRABAJO", "Distrito": "Casco Antiguo", "Ciudad": "Sevilla"}},
{"geometry": {"type": "Point", "coordinates": [-5.9938975, 37.40144009999999]}, "type": "Feature", "properties": {"Web": null, "CIF": "F91165688", "Actividad": "Comercio al por mayor/distribucion", "Direccion": "CALLE CALATRAVA Nº 8", "Tipo_Entidad": "Cooperativa", "Nombre": "Hijos de a. hidalgo, s. coop. and.", "Mail": null, "Telefono": null, "Clasificacion_Entidad": "SOCIEDADES COOPERATIVAS DE TRABAJO", "Distrito": "Casco Antiguo", "Ciudad": "Sevilla"}},
{"geometry": {"type": "Point", "coordinates": [-5.9520463, 37.4136721]}, "type": "Feature", "properties": {"Web": null, "CIF": "F41918780", "Actividad": "Comercio al por mayor/distribucion", "Direccion": "POLIG. IND. CALONGE. C/ PLATINO, 3", "Tipo_Entidad": "Cooperativa", "Nombre": "Broncesur s. coop. and.", "Mail": null, "Telefono": null, "Clasificacion_Entidad": "SOCIEDADES COOPERATIVAS DE TRABAJO", "Distrito": "San Pablo-Santa Justa", "Ciudad": "Sevilla"}},
{"geometry": {"type": "Point", "coordinates": [-5.995077500000001, 37.3822991]}, "type": "Feature", "properties": {"Web": null, "CIF": "F91173153", "Actividad": "Comercio al por mayor/distribucion", "Direccion": "C/ LOBO, NÚM. 34", "Tipo_Entidad": "Cooperativa", "Nombre": "Vidrial, s. coop. and.", "Mail": null, "Telefono": null, "Clasificacion_Entidad": "SOCIEDADES COOPERATIVAS DE TRABAJO", "Distrito": "Bellavista-La Palmera", "Ciudad": "Sevilla"}},
{"geometry": {"type": "Point", "coordinates": [-6.0075883, 37.3859432]}, "type": "Feature", "properties": {"Web": null, "CIF": "F41760133", "Actividad": "Comercio al por mayor/distribucion", "Direccion": "PAGÉS DEL CORRO", "Tipo_Entidad": "Cooperativa", "Nombre": "Saneamientos la otra orilla, s. coop. and.", "Mail": null, "Telefono": null, "Clasificacion_Entidad": "SOCIEDADES COOPERATIVAS DE TRABAJO", "Distrito": "Triana", "Ciudad": "Sevilla"}},
{"geometry": {"type": "Point", "coordinates": [-5.977705299999999, 37.39717900000001]}, "type": "Feature", "properties": {"Web": null, "CIF": "F91277145", "Actividad": "Comercio al por mayor/distribucion", "Direccion": "C/ ARROYO 77, LOCAL A", "Tipo_Entidad": "Cooperativa", "Nombre": "Vimabe general de la fijacion, s. coop. and.", "Mail": null, "Telefono": null, "Clasificacion_Entidad": "SOCIEDADES COOPERATIVAS DE TRABAJO", "Distrito": "Macarena", "Ciudad": "Sevilla"}},
{"geometry": {"type": "Point", "coordinates": [-5.96669, 37.38704]}, "type": "Feature", "properties": {"Web": null, "CIF": "F91053835", "Actividad": "Comercio al por mayor/distribucion", "Direccion": "BEATRIZ DE SUABIA, 12", "Tipo_Entidad": "Cooperativa", "Nombre": "Polvero nuevo tato, sociedad cooperativa andaluza", "Mail": null, "Telefono": null, "Clasificacion_Entidad": "SOCIEDADES COOPERATIVAS DE TRABAJO", "Distrito": "Nervión", "Ciudad": "Sevilla"}},
{"geometry": {"type": "Point", "coordinates": [-5.98797, 37.40091]}, "type": "Feature", "properties": {"Web": null, "CIF": null, "Actividad": "Comercio al por mayor/distribucion", "Direccion": "Fray Diego de Cádiz", "Tipo_Entidad": "Cooperativa", "Nombre": "Santa cleta s.coop.and. de interés social", "Mail": null, "Telefono": null, "Clasificacion_Entidad": "SOCIEDADES COOPERATIVAS DE TRABAJO", "Distrito": "Casco Antiguo", "Ciudad": "Sevilla"}},
{"geometry": {"type": "Point", "coordinates": [-6.004398399999999, 37.376414]}, "type": "Feature", "properties": {"Web": null, "CIF": "F91041426", "Actividad": "Industrial/artesanal", "Direccion": "AVENIDA REPUBLICA ARGENTINA Nº 39 B", "Tipo_Entidad": "Cooperativa", "Nombre": "Control de produccion del sur, s. coop. and.", "Mail": null, "Telefono": null, "Clasificacion_Entidad": "SOCIEDADES COOPERATIVAS DE TRABAJO", "Distrito": "Bellavista-La Palmera", "Ciudad": "Sevilla"}},
{"geometry": {"type": "Point", "coordinates": [-5.991293, 37.3932524]}, "type": "Feature", "properties": {"Web": null, "CIF": "F91006486", "Actividad": "Comercio", "Direccion": "PLAZA DE LA ENCARNACION, Nº 18  1º C", "Tipo_Entidad": "Cooperativa", "Nombre": "Expobici, s. coop. and.", "Mail": null, "Telefono": null, "Clasificacion_Entidad": "SOCIEDADES COOPERATIVAS DE TRABAJO", "Distrito": "Casco Antiguo", "Ciudad": "Sevilla"}},
{"geometry": {"type": "Point", "coordinates": [-5.923264, 37.4096281]}, "type": "Feature", "properties": {"Web": null, "CIF": "F41484783", "Actividad": "Comercio", "Direccion": "IDELFONSO MARAÑON LAVIN", "Tipo_Entidad": "Cooperativa", "Nombre": "Grudescase, s. coop. and.", "Mail": null, "Telefono": null, "Clasificacion_Entidad": "SOCIEDADES COOPERATIVAS DE TRABAJO", "Distrito": "Casco Antiguo", "Ciudad": "Sevilla"}},
{"geometry": {"type": "Point", "coordinates": [-5.973980099999999, 37.3776759]}, "type": "Feature", "properties": {"Web": null, "CIF": "F91879791", "Actividad": "Comercio", "Direccion": "PZA. PINTOR AMALIO GARCIA DEL MORAL, 2", "Tipo_Entidad": "Cooperativa", "Nombre": "Tradevo, s.coop.and.", "Mail": null, "Telefono": null, "Clasificacion_Entidad": "SOCIEDADES COOPERATIVAS DE TRABAJO", "Distrito": "Nervión", "Ciudad": "Sevilla"}},
{"geometry": {"type": "Point", "coordinates": [-5.9849401, 37.3909306]}, "type": "Feature", "properties": {"Web": null, "CIF": "F41988114", "Actividad": "Comercio", "Direccion": "CONDE NEGRO, Nº 13  1º A", "Tipo_Entidad": "Cooperativa", "Nombre": "Higares, s. coop. and.", "Mail": null, "Telefono": null, "Clasificacion_Entidad": "SOCIEDADES COOPERATIVAS DE TRABAJO", "Distrito": "Casco Antiguo", "Ciudad": "Sevilla"}},
{"geometry": {"type": "Point", "coordinates": [-5.9731444, 37.4076463]}, "type": "Feature", "properties": {"Web": null, "CIF": "F91023218", "Actividad": "Comercio", "Direccion": "C/ QUIROGA Nº 24, LOCAL A.", "Tipo_Entidad": "Cooperativa", "Nombre": "Inforvit, s. coop. and.", "Mail": null, "Telefono": null, "Clasificacion_Entidad": "SOCIEDADES COOPERATIVAS DE TRABAJO", "Distrito": "Macarena", "Ciudad": "Sevilla"}},
{"geometry": {"type": "Point", "coordinates": [-5.9234233, 37.3996523]}, "type": "Feature", "properties": {"Web": null, "CIF": "F91302729", "Actividad": "Comercio", "Direccion": "DOCTOR MADRAZO OSUNA, 7, BL. 3, 6º C", "Tipo_Entidad": "Cooperativa", "Nombre": "Doble clik informatica, sociedad cooperativa andaluza", "Mail": null, "Telefono": null, "Clasificacion_Entidad": "SOCIEDADES COOPERATIVAS DE TRABAJO", "Distrito": "Este", "Ciudad": "Sevilla"}},
{"geometry": {"type": "Point", "coordinates": [-5.9616826, 37.3580078]}, "type": "Feature", "properties": {"Web": null, "CIF": "F90261900", "Actividad": "Industrial/artesanal", "Direccion": "ARQUITECTO JOSE GALNARES", "Tipo_Entidad": "Cooperativa", "Nombre": "Confecciones j&a s.coop.and.", "Mail": null, "Telefono": null, "Clasificacion_Entidad": "SOCIEDADES COOPERATIVAS DE TRABAJO", "Distrito": "Polígono Sur", "Ciudad": "Sevilla"}},
{"geometry": {"type": "Point", "coordinates": [-5.9485595, 37.3727312]}, "type": "Feature", "properties": {"Web": null, "CIF": "F91053116", "Actividad": "Comercio", "Direccion": "INGENIERO LACIERVA, 96", "Tipo_Entidad": "Cooperativa", "Nombre": "Ferreteria el clavo, s. coop. and.", "Mail": null, "Telefono": null, "Clasificacion_Entidad": "SOCIEDADES COOPERATIVAS DE TRABAJO", "Distrito": "Macarena", "Ciudad": "Sevilla"}},
{"geometry": {"type": "Point", "coordinates": [-5.9849852, 37.4131822]}, "type": "Feature", "properties": {"Web": null, "CIF": "F91109330", "Actividad": "Comercio", "Direccion": "AVENIDA JUVENTUDES MUSICALES Nº 2 LOCAL 4", "Tipo_Entidad": "Cooperativa", "Nombre": "Acimut electronica, sociedad cooperativa andaluza", "Mail": null, "Telefono": null, "Clasificacion_Entidad": "SOCIEDADES COOPERATIVAS DE TRABAJO", "Distrito": "Norte", "Ciudad": "Sevilla"}},
{"geometry": {"type": "Point", "coordinates": [-5.993222299999999, 37.40034]}, "type": "Feature", "properties": {"Web": null, "CIF": "F90025479", "Actividad": "Comercio", "Direccion": "Relator", "Tipo_Entidad": "Cooperativa", "Nombre": "Relatoras s. coop. and", "Mail": null, "Telefono": null, "Clasificacion_Entidad": "SOCIEDADES COOPERATIVAS DE TRABAJO", "Distrito": "Casco Antiguo", "Ciudad": "Sevilla"}},
{"geometry": {"type": "Point", "coordinates": [-5.9580217, 37.3936708]}, "type": "Feature", "properties": {"Web": null, "CIF": "F91052050", "Actividad": "Comercio", "Direccion": "MILETOS Nº 2- 4º D", "Tipo_Entidad": "Cooperativa", "Nombre": "Avalon, s. coop. and.", "Mail": null, "Telefono": null, "Clasificacion_Entidad": "SOCIEDADES COOPERATIVAS DE TRABAJO", "Distrito": "San Pablo-Santa Justa", "Ciudad": "Sevilla"}},
{"geometry": {"type": "Point", "coordinates": [-5.9198337, 37.3981681]}, "type": "Feature", "properties": {"Web": null, "CIF": "F91285668", "Actividad": "Comercio", "Direccion": "FLOR DE GITANILLA Nº 9, BQ. 2, 2ºC", "Tipo_Entidad": "Cooperativa", "Nombre": "Sepaprens, s. coop. and.", "Mail": null, "Telefono": null, "Clasificacion_Entidad": "SOCIEDADES COOPERATIVAS DE TRABAJO", "Distrito": "Este", "Ciudad": "Sevilla"}},
{"geometry": {"type": "Point", "coordinates": [-5.9838043, 37.430511]}, "type": "Feature", "properties": {"Web": null, "CIF": "F91034702", "Actividad": "Comercio", "Direccion": "PEZ ESPADA, 144", "Tipo_Entidad": "Cooperativa", "Nombre": "Metro jimenez, s. coop. and.", "Mail": null, "Telefono": null, "Clasificacion_Entidad": "SOCIEDADES COOPERATIVAS DE TRABAJO", "Distrito": "Norte", "Ciudad": "Sevilla"}},
{"geometry": {"type": "Point", "coordinates": [-5.934887499999999, 37.3771003]}, "type": "Feature", "properties": {"Web": null, "CIF": "F91375261", "Actividad": "Comercio", "Direccion": "CALLE UGIJAR Nº 6", "Tipo_Entidad": "Cooperativa", "Nombre": "Gestion y distribucion medios s.coop.and.", "Mail": null, "Telefono": null, "Clasificacion_Entidad": "SOCIEDADES COOPERATIVAS DE TRABAJO", "Distrito": "Este", "Ciudad": "Sevilla"}},
{"geometry": {"type": "Point", "coordinates": [-5.9884153, 37.3930531]}, "type": "Feature", "properties": {"Web": null, "CIF": "F90288903", "Actividad": "Comercio", "Direccion": "ALHONDIGA", "Tipo_Entidad": "Cooperativa", "Nombre": "Tactic sevilla, s. coop. and.", "Mail": null, "Telefono": null, "Clasificacion_Entidad": "SOCIEDADES COOPERATIVAS DE TRABAJO", "Distrito": "Casco Antiguo", "Ciudad": "Sevilla"}},
{"geometry": {"type": "Point", "coordinates": [-5.9748287, 37.3960243]}, "type": "Feature", "properties": {"Web": null, "CIF": null, "Actividad": "Industrial/artesanal", "Direccion": "SAMANIEGO, Nº 48 ACC. D", "Tipo_Entidad": "Cooperativa", "Nombre": "Cocesur, s.coop.and.", "Mail": null, "Telefono": null, "Clasificacion_Entidad": "SOCIEDADES COOPERATIVAS DE TRABAJO", "Distrito": "Macarena", "Ciudad": "Sevilla"}},
{"geometry": {"type": "Point", "coordinates": [-5.955212599999999, 37.4049986]}, "type": "Feature", "properties": {"Web": null, "CIF": "F90103870", "Actividad": "Comercio", "Direccion": "CUNA", "Tipo_Entidad": "Cooperativa", "Nombre": "Verde moscú, s. coop. and.", "Mail": null, "Telefono": null, "Clasificacion_Entidad": "SOCIEDADES COOPERATIVAS DE TRABAJO", "Distrito": "Casco Antiguo", "Ciudad": "Sevilla"}},
{"geometry": {"type": "Point", "coordinates": [-5.981809300000001, 37.3700769]}, "type": "Feature", "properties": {"Web": null, "CIF": "F91121780", "Actividad": "Comercio", "Direccion": "CALLE  BOGOTÁ, Nº 9 -A", "Tipo_Entidad": "Cooperativa", "Nombre": "El vestidor, s. coop. and.", "Mail": null, "Telefono": null, "Clasificacion_Entidad": "SOCIEDADES COOPERATIVAS DE TRABAJO", "Distrito": "Polígono Sur", "Ciudad": "Sevilla"}},
{"geometry": {"type": "Point", "coordinates": [-5.991782, 37.3939854]}, "type": "Feature", "properties": {"Web": null, "CIF": "F90241068", "Actividad": "Comercio", "Direccion": "REGINA", "Tipo_Entidad": "Cooperativa", "Nombre": "Madroñas sociedad cooperativa andaluza de trabajo asociado", "Mail": null, "Telefono": null, "Clasificacion_Entidad": "SOCIEDADES COOPERATIVAS DE TRABAJO", "Distrito": "Casco Antiguo", "Ciudad": "Sevilla"}},
{"geometry": {"type": "Point", "coordinates": [-6.0037753, 37.3843907]}, "type": "Feature", "properties": {"Web": null, "CIF": null, "Actividad": "Comercio", "Direccion": "C/ SAN JACINTO, Nº 17 2º IZDA", "Tipo_Entidad": "Cooperativa", "Nombre": "Andygal s.coop.and.", "Mail": null, "Telefono": null, "Clasificacion_Entidad": "SOCIEDADES COOPERATIVAS DE TRABAJO", "Distrito": "Triana", "Ciudad": "Sevilla"}},
{"geometry": {"type": "Point", "coordinates": [-5.9834252, 37.4024036]}, "type": "Feature", "properties": {"Web": null, "CIF": "F910300312", "Actividad": "Comercio", "Direccion": "LEON XIII, 36", "Tipo_Entidad": "Cooperativa", "Nombre": "Novocalzado, s.coop.and.", "Mail": null, "Telefono": null, "Clasificacion_Entidad": "SOCIEDADES COOPERATIVAS DE TRABAJO", "Distrito": "Macarena", "Ciudad": "Sevilla"}},
{"geometry": {"type": "Point", "coordinates": [-5.9816392, 37.3936711]}, "type": "Feature", "properties": {"Web": null, "CIF": "F91951889", "Actividad": "Comercio", "Direccion": "JOSE LAGUILLO, 23. BQ. 4. LOCAL 4", "Tipo_Entidad": "Cooperativa", "Nombre": "Los infantes, s.coop.and.", "Mail": null, "Telefono": null, "Clasificacion_Entidad": "SOCIEDADES COOPERATIVAS DE TRABAJO", "Distrito": "Casco Antiguo", "Ciudad": "Sevilla"}},
{"geometry": {"type": "Point", "coordinates": [-5.9718107, 37.3920247]}, "type": "Feature", "properties": {"Web": null, "CIF": "F91090696", "Actividad": "Comercio", "Direccion": "AVDA. KANSAS CITY 38 BAJO", "Tipo_Entidad": "Cooperativa", "Nombre": "Residencia canina molorgaz, s. coop. and.", "Mail": null, "Telefono": null, "Clasificacion_Entidad": "SOCIEDADES COOPERATIVAS DE TRABAJO", "Distrito": "San Pablo-Santa Justa", "Ciudad": "Sevilla"}},
{"geometry": {"type": "Point", "coordinates": [-5.9745498, 37.38742939999999]}, "type": "Feature", "properties": {"Web": null, "CIF": "F91481580", "Actividad": "Comercio", "Direccion": "CALLE LUIS MONTOTO 85, LOCAL 4", "Tipo_Entidad": "Cooperativa", "Nombre": "Martin sanchez joyeros, s.coop. and.", "Mail": null, "Telefono": null, "Clasificacion_Entidad": "SOCIEDADES COOPERATIVAS DE TRABAJO", "Distrito": "Este", "Ciudad": "Sevilla"}},
{"geometry": {"type": "Point", "coordinates": [-5.984897, 37.3634889]}, "type": "Feature", "properties": {"Web": null, "CIF": "F41015959", "Actividad": "Comercio", "Direccion": "Afan de Rivera", "Tipo_Entidad": "Cooperativa", "Nombre": "Santa barbara, s.coop.and.", "Mail": null, "Telefono": null, "Clasificacion_Entidad": "SOCIEDADES COOPERATIVAS DE TRABAJO", "Distrito": "Cerro-Amate", "Ciudad": "Sevilla"}},
{"geometry": {"type": "Point", "coordinates": [-6.00291, 37.38980129999999]}, "type": "Feature", "properties": {"Web": null, "CIF": "F91012286", "Actividad": "Comercio", "Direccion": "ARJONA, 4", "Tipo_Entidad": "Cooperativa", "Nombre": "Decoracion rivero, s. coop. and.", "Mail": null, "Telefono": null, "Clasificacion_Entidad": "SOCIEDADES COOPERATIVAS DE TRABAJO", "Distrito": "Casco Antiguo", "Ciudad": "Sevilla"}},
{"geometry": {"type": "Point", "coordinates": [-5.9976126, 37.3914357]}, "type": "Feature", "properties": {"Web": null, "CIF": "F91271395", "Actividad": "Industrial/artesanal", "Direccion": "PASAJE JOSEFA REINA PUERTO, Nº3 B", "Tipo_Entidad": "Cooperativa", "Nombre": "Universal tres, s. coop. and.", "Mail": null, "Telefono": null, "Clasificacion_Entidad": "SOCIEDADES COOPERATIVAS DE TRABAJO", "Distrito": "Casco Antiguo", "Ciudad": "Sevilla"}},
{"geometry": {"type": "Point", "coordinates": [-5.961321, 37.383021]}, "type": "Feature", "properties": {"Web": null, "CIF": "F91066118", "Actividad": "Comercio", "Direccion": "ENRIQUE FLORES, Nº 42", "Tipo_Entidad": "Cooperativa", "Nombre": "Secotax, s. coop. and.", "Mail": null, "Telefono": null, "Clasificacion_Entidad": "SOCIEDADES COOPERATIVAS DE TRABAJO", "Distrito": "Nervión", "Ciudad": "Sevilla"}},
{"geometry": {"type": "Point", "coordinates": [-5.919029699999999, 37.3845602]}, "type": "Feature", "properties": {"Web": null, "CIF": "F41917048", "Actividad": "Transporte", "Direccion": "VIA APIA", "Tipo_Entidad": "Cooperativa", "Nombre": "Taxis rurales de sevilla", "Mail": null, "Telefono": null, "Clasificacion_Entidad": "SOCIEDADES COOPERATIVAS DE TRABAJO", "Distrito": "Norte", "Ciudad": "Sevilla"}},
{"geometry": {"type": "Point", "coordinates": [-5.970987999999999, 37.4167723]}, "type": "Feature", "properties": {"Web": null, "CIF": null, "Actividad": "Transporte", "Direccion": "PARQUE DE GRAZALEMA 1-8, 5º A", "Tipo_Entidad": "Cooperativa", "Nombre": "Gocam, s. coop. and", "Mail": null, "Telefono": null, "Clasificacion_Entidad": "SOCIEDADES COOPERATIVAS DE TRABAJO", "Distrito": "Norte", "Ciudad": "Sevilla"}},
{"geometry": {"type": "Point", "coordinates": [-5.96414, 37.37206]}, "type": "Feature", "properties": {"Web": null, "CIF": null, "Actividad": "Transporte", "Direccion": "PLAZA ALEGRE, 41  BDA. HISPALIS", "Tipo_Entidad": "Cooperativa", "Nombre": "Plataforma de servicios integrales del transporte, s. coop. and.", "Mail": null, "Telefono": null, "Clasificacion_Entidad": "SOCIEDADES COOPERATIVAS DE TRABAJO", "Distrito": "Cerro-Amate", "Ciudad": "Sevilla"}},
{"geometry": {"type": "Point", "coordinates": [-6.0022271, 37.3892273]}, "type": "Feature", "properties": {"Web": null, "CIF": "F91010801", "Actividad": "Transporte", "Direccion": "ARJONA  L16  Nº 26", "Tipo_Entidad": "Cooperativa", "Nombre": "Trans andalucia, s. coop. and.", "Mail": null, "Telefono": null, "Clasificacion_Entidad": "SOCIEDADES COOPERATIVAS DE TRABAJO", "Distrito": "Casco Antiguo", "Ciudad": "Sevilla"}},
{"geometry": {"type": "Point", "coordinates": [-5.9144982, 37.4060469]}, "type": "Feature", "properties": {"Web": null, "CIF": "F91082503", "Actividad": "Transporte", "Direccion": "C/ PAKISTÁN, Nº 1, PORTAL 2, 1º B. EDIF. GIRALDA ESTE.", "Tipo_Entidad": "Cooperativa", "Nombre": "Colecpress, s. coop. and.", "Mail": null, "Telefono": null, "Clasificacion_Entidad": "SOCIEDADES COOPERATIVAS DE TRABAJO", "Distrito": "Este", "Ciudad": "Sevilla"}},
{"geometry": {"type": "Point", "coordinates": [-5.9401592, 37.3925914]}, "type": "Feature", "properties": {"Web": null, "CIF": "F91329169", "Actividad": "Industrial/artesanal", "Direccion": "POLIGONO AEROPUERTO, CALLE ARTESA Nº 2", "Tipo_Entidad": "Cooperativa", "Nombre": "Linea moda, s. coop. and.", "Mail": null, "Telefono": null, "Clasificacion_Entidad": "SOCIEDADES COOPERATIVAS DE TRABAJO", "Distrito": "Este", "Ciudad": "Sevilla"}},
{"geometry": {"type": "Point", "coordinates": [-5.9722684, 37.3712778]}, "type": "Feature", "properties": {"Web": null, "CIF": "F91228320", "Actividad": "Transporte", "Direccion": "C/ MALVALOCA, Nº 17, 1º C", "Tipo_Entidad": "Cooperativa", "Nombre": "Tydiprensa, s. coop. and.", "Mail": null, "Telefono": null, "Clasificacion_Entidad": "SOCIEDADES COOPERATIVAS DE TRABAJO", "Distrito": "Polígono Sur", "Ciudad": "Sevilla"}},
{"geometry": {"type": "Point", "coordinates": [-5.923176, 37.3855066]}, "type": "Feature", "properties": {"Web": null, "CIF": "F90082942", "Actividad": "Transporte", "Direccion": "PINO CENTRAL", "Tipo_Entidad": "Cooperativa", "Nombre": "Servilogic s.coop.and.", "Mail": null, "Telefono": null, "Clasificacion_Entidad": "SOCIEDADES COOPERATIVAS DE TRABAJO", "Distrito": "Norte", "Ciudad": "Sevilla"}},
{"geometry": {"type": "Point", "coordinates": [-5.980248, 37.3948529]}, "type": "Feature", "properties": {"Web": null, "CIF": null, "Actividad": "Transporte", "Direccion": "VENECIA", "Tipo_Entidad": "Cooperativa", "Nombre": "Cooperativa sevillana de bebidas s.coop.and.", "Mail": null, "Telefono": null, "Clasificacion_Entidad": "SOCIEDADES COOPERATIVAS DE TRABAJO", "Distrito": "Macarena", "Ciudad": "Sevilla"}},
{"geometry": {"type": "Point", "coordinates": [-5.8960594, 37.3830513]}, "type": "Feature", "properties": {"Web": null, "CIF": "F90019255", "Actividad": "Transporte", "Direccion": "POLIG. IND. EL PINO. C/ PINO CENTRAL", "Tipo_Entidad": "Cooperativa", "Nombre": "Reyesanz s.coop.and.", "Mail": null, "Telefono": null, "Clasificacion_Entidad": "SOCIEDADES COOPERATIVAS DE TRABAJO", "Distrito": "Norte", "Ciudad": "Sevilla"}},
{"geometry": {"type": "Point", "coordinates": [-5.9236, 37.37714]}, "type": "Feature", "properties": {"Web": null, "CIF": "F90277609", "Actividad": "Transporte", "Direccion": "PARSI SEIS", "Tipo_Entidad": "Cooperativa", "Nombre": "Repartos hispalenses s.coop.and", "Mail": null, "Telefono": null, "Clasificacion_Entidad": "SOCIEDADES COOPERATIVAS DE TRABAJO", "Distrito": "Norte", "Ciudad": "Sevilla"}},
{"geometry": {"type": "Point", "coordinates": [-5.940268, 37.377267]}, "type": "Feature", "properties": {"Web": null, "CIF": "F90060815", "Actividad": "Transporte", "Direccion": "BAENA", "Tipo_Entidad": "Cooperativa", "Nombre": "Ferjatrans s.c.a", "Mail": null, "Telefono": null, "Clasificacion_Entidad": "SOCIEDADES COOPERATIVAS DE TRABAJO", "Distrito": "Cerro-Amate", "Ciudad": "Sevilla"}},
{"geometry": {"type": "Point", "coordinates": [-5.923176, 37.3855066]}, "type": "Feature", "properties": {"Web": null, "CIF": "F90084526", "Actividad": "Transporte", "Direccion": "PINO CENTRAL", "Tipo_Entidad": "Cooperativa", "Nombre": "Ctl cooperativa transporte lijero s.coop.and.", "Mail": null, "Telefono": null, "Clasificacion_Entidad": "SOCIEDADES COOPERATIVAS DE TRABAJO", "Distrito": "Norte", "Ciudad": "Sevilla"}},
{"geometry": {"type": "Point", "coordinates": [-6.0054306, 37.3820918]}, "type": "Feature", "properties": {"Web": null, "CIF": null, "Actividad": "Transporte", "Direccion": "LUCIA DE JESUS, 2. 4º B", "Tipo_Entidad": "Cooperativa", "Nombre": "Trianatrans, s. coop. and.", "Mail": null, "Telefono": null, "Clasificacion_Entidad": "SOCIEDADES COOPERATIVAS DE TRABAJO", "Distrito": "Triana", "Ciudad": "Sevilla"}},
{"geometry": {"type": "Point", "coordinates": [-5.964915899999999, 37.380157]}, "type": "Feature", "properties": {"Web": null, "CIF": null, "Actividad": "Transporte", "Direccion": "ESPINOSA DE LOS MONTEROS, 4. 2º-2", "Tipo_Entidad": "Cooperativa", "Nombre": "Framoan, s.coop. and.", "Mail": null, "Telefono": null, "Clasificacion_Entidad": "SOCIEDADES COOPERATIVAS DE TRABAJO", "Distrito": "Nervión", "Ciudad": "Sevilla"}},
{"geometry": {"type": "Point", "coordinates": [-6.0030097, 37.3883968]}, "type": "Feature", "properties": {"Web": null, "CIF": "F91740159", "Actividad": "Transporte", "Direccion": "CL ARJONA, Nº 16 LOCAL 28-29", "Tipo_Entidad": "Cooperativa", "Nombre": "Transsiteb, s. coop. and.", "Mail": null, "Telefono": null, "Clasificacion_Entidad": "SOCIEDADES COOPERATIVAS DE TRABAJO", "Distrito": "Casco Antiguo", "Ciudad": "Sevilla"}},
{"geometry": {"type": "Point", "coordinates": [-5.979109999999999, 37.34885]}, "type": "Feature", "properties": {"Web": null, "CIF": "F91722827", "Actividad": "Transporte", "Direccion": "CL NUESTRA SEÑORA DEL CARMEN 31 - BDA. EL CARDENAL", "Tipo_Entidad": "Cooperativa", "Nombre": "Portes y recados, s. coop. and.", "Mail": null, "Telefono": null, "Clasificacion_Entidad": "SOCIEDADES COOPERATIVAS DE TRABAJO", "Distrito": "Bellavista-La Palmera", "Ciudad": "Sevilla"}},
{"geometry": {"type": "Point", "coordinates": [-5.9789037, 37.3964056]}, "type": "Feature", "properties": {"Web": null, "CIF": null, "Actividad": "Transporte", "Direccion": "ARROYO, 64", "Tipo_Entidad": "Cooperativa", "Nombre": "Transportes siderurgicos, s.coop.and.", "Mail": null, "Telefono": null, "Clasificacion_Entidad": "SOCIEDADES COOPERATIVAS DE TRABAJO", "Distrito": "Macarena", "Ciudad": "Sevilla"}},
{"geometry": {"type": "Point", "coordinates": [-5.9717159, 37.3672332]}, "type": "Feature", "properties": {"Web": null, "CIF": "F41772401", "Actividad": "Transporte", "Direccion": "C/ ALFONSO LASSO DE LA VEGA Nº 31  1ºA", "Tipo_Entidad": "Cooperativa", "Nombre": "Disprens, s. coop. and.", "Mail": null, "Telefono": null, "Clasificacion_Entidad": "SOCIEDADES COOPERATIVAS DE TRABAJO", "Distrito": "Cerro-Amate", "Ciudad": "Sevilla"}},
{"geometry": {"type": "Point", "coordinates": [-6.0030097, 37.3883968]}, "type": "Feature", "properties": {"Web": null, "CIF": "F41818055", "Actividad": "Transporte", "Direccion": "C/ ARJONA Nº 16, LOCAL 28-29", "Tipo_Entidad": "Cooperativa", "Nombre": "Hormian, s. coop. and.", "Mail": null, "Telefono": null, "Clasificacion_Entidad": "SOCIEDADES COOPERATIVAS DE TRABAJO", "Distrito": "Casco Antiguo", "Ciudad": "Sevilla"}},
{"geometry": {"type": "Point", "coordinates": [-5.9466044, 37.3985225]}, "type": "Feature", "properties": {"Web": null, "CIF": "F41773839", "Actividad": "Industrial/artesanal", "Direccion": "FERNANDEZ MURUBE", "Tipo_Entidad": "Cooperativa", "Nombre": "Almacenes carly, s. coop. and.º", "Mail": null, "Telefono": null, "Clasificacion_Entidad": "SOCIEDADES COOPERATIVAS DE TRABAJO", "Distrito": "San Pablo-Santa Justa", "Ciudad": "Sevilla"}},
{"geometry": {"type": "Point", "coordinates": [-5.9693584, 37.3831913]}, "type": "Feature", "properties": {"Web": null, "CIF": "F91045096", "Actividad": "Transporte", "Direccion": "C/ GOYA Nº 58 - A", "Tipo_Entidad": "Cooperativa", "Nombre": "Repress, s. coop. and.", "Mail": null, "Telefono": null, "Clasificacion_Entidad": "SOCIEDADES COOPERATIVAS DE TRABAJO", "Distrito": "Nervión", "Ciudad": "Sevilla"}},
{"geometry": {"type": "Point", "coordinates": [-5.9401183, 37.4021095]}, "type": "Feature", "properties": {"Web": null, "CIF": "F91156208", "Actividad": "Transporte", "Direccion": "CUEVA DE LA PILETA Nº 3  5º A   SEVILLA ESTE", "Tipo_Entidad": "Cooperativa", "Nombre": "Jeloucar, s. coop. and.", "Mail": null, "Telefono": null, "Clasificacion_Entidad": "SOCIEDADES COOPERATIVAS DE TRABAJO", "Distrito": "Este", "Ciudad": "Sevilla"}},
{"geometry": {"type": "Point", "coordinates": [-5.9818481, 37.4057689]}, "type": "Feature", "properties": {"Web": null, "CIF": "F41794280", "Actividad": "Transporte", "Direccion": "C/ MANUEL VILLALOBOS, 39. BAJO A", "Tipo_Entidad": "Cooperativa", "Nombre": "Ruter, s. coop. and.", "Mail": null, "Telefono": null, "Clasificacion_Entidad": "SOCIEDADES COOPERATIVAS DE TRABAJO", "Distrito": "Macarena", "Ciudad": "Sevilla"}},
{"geometry": {"type": "Point", "coordinates": [-5.9839443, 37.3652873]}, "type": "Feature", "properties": {"Web": null, "CIF": "F91140186", "Actividad": "Transporte", "Direccion": "AV. MANUEL SIUROT, 3 BLOQUE 4, BJ.", "Tipo_Entidad": "Cooperativa", "Nombre": "Coriatrans, s. coop. and.", "Mail": null, "Telefono": null, "Clasificacion_Entidad": "SOCIEDADES COOPERATIVAS DE TRABAJO", "Distrito": "Polígono Sur", "Ciudad": "Sevilla"}},
{"geometry": {"type": "Point", "coordinates": [-5.9590795, 37.4237182]}, "type": "Feature", "properties": {"Web": null, "CIF": null, "Actividad": "Transporte", "Direccion": "CL CARROCEROS Nº 4 PLANTA 8 PUERTA B", "Tipo_Entidad": "Cooperativa", "Nombre": "Occired, s.coop.and.", "Mail": null, "Telefono": null, "Clasificacion_Entidad": "SOCIEDADES COOPERATIVAS DE TRABAJO", "Distrito": "Norte", "Ciudad": "Sevilla"}},
{"geometry": {"type": "Point", "coordinates": [-5.942595499999999, 37.3845176]}, "type": "Feature", "properties": {"Web": null, "CIF": null, "Actividad": "Transporte", "Direccion": "POLIGONO EL PINO. C/. PINO CENTRAL, 16", "Tipo_Entidad": "Cooperativa", "Nombre": "Ciclo, s.coop.and.", "Mail": null, "Telefono": null, "Clasificacion_Entidad": "SOCIEDADES COOPERATIVAS DE TRABAJO", "Distrito": "Norte", "Ciudad": "Sevilla"}},
{"geometry": {"type": "Point", "coordinates": [-5.9826042, 37.3951704]}, "type": "Feature", "properties": {"Web": null, "CIF": "F91238782", "Actividad": "Transporte", "Direccion": "MARIA AUXILIADORA,  Nº14, 2º, MODULO 11", "Tipo_Entidad": "Cooperativa", "Nombre": "Transjam, sociedad cooperativa andaluza", "Mail": null, "Telefono": null, "Clasificacion_Entidad": "SOCIEDADES COOPERATIVAS DE TRABAJO", "Distrito": "Casco Antiguo", "Ciudad": "Sevilla"}},
{"geometry": {"type": "Point", "coordinates": [-6.0054306, 37.3820918]}, "type": "Feature", "properties": {"Web": null, "CIF": "F91244954", "Actividad": "Transporte", "Direccion": "C/ LUCIA DE JESUS 2, 4º B", "Tipo_Entidad": "Cooperativa", "Nombre": "Jocatrans, s. coop. and.", "Mail": null, "Telefono": null, "Clasificacion_Entidad": "SOCIEDADES COOPERATIVAS DE TRABAJO", "Distrito": "Triana", "Ciudad": "Sevilla"}},
{"geometry": {"type": "Point", "coordinates": [-5.9722909, 37.3634804]}, "type": "Feature", "properties": {"Web": null, "CIF": "F91191601", "Actividad": "Transporte", "Direccion": "C/ MANZANILLA 6, 6, 5º D", "Tipo_Entidad": "Cooperativa", "Nombre": "Transportes sofranpal, s. coop. and.", "Mail": null, "Telefono": null, "Clasificacion_Entidad": "SOCIEDADES COOPERATIVAS DE TRABAJO", "Distrito": "Cerro-Amate", "Ciudad": "Sevilla"}},
{"geometry": {"type": "Point", "coordinates": [-5.948856999999999, 37.3680202]}, "type": "Feature", "properties": {"Web": null, "CIF": null, "Actividad": "Transporte", "Direccion": "CALLE BINEFAR, Nº 9, 1º C", "Tipo_Entidad": "Cooperativa", "Nombre": "Ricotrans del sur, s. coop. and.", "Mail": null, "Telefono": null, "Clasificacion_Entidad": "SOCIEDADES COOPERATIVAS DE TRABAJO", "Distrito": "Cerro-Amate", "Ciudad": "Sevilla"}},
{"geometry": {"type": "Point", "coordinates": [-5.9850938, 37.3946613]}, "type": "Feature", "properties": {"Web": null, "CIF": "F91936062", "Actividad": "Industrial/artesanal", "Direccion": "BUTRÓN, 8. LOCAL C", "Tipo_Entidad": "Cooperativa", "Nombre": "Puertas salamanca, s.coop.and.", "Mail": null, "Telefono": null, "Clasificacion_Entidad": "SOCIEDADES COOPERATIVAS DE TRABAJO", "Distrito": "Casco Antiguo", "Ciudad": "Sevilla"}},
{"geometry": {"type": "Point", "coordinates": [-5.9699639, 37.3596631]}, "type": "Feature", "properties": {"Web": null, "CIF": "F91268771", "Actividad": "Transporte", "Direccion": "PADRE JOSÉ SEBASTIÁN BANDARÁN, BJ. 199, 10º C", "Tipo_Entidad": "Cooperativa", "Nombre": "Tbelle, s. coop. and.", "Mail": null, "Telefono": null, "Clasificacion_Entidad": "SOCIEDADES COOPERATIVAS DE TRABAJO", "Distrito": "Polígono Sur", "Ciudad": "Sevilla"}},
{"geometry": {"type": "Point", "coordinates": [-5.9594371, 37.3999179]}, "type": "Feature", "properties": {"Web": null, "CIF": "F91286492", "Actividad": "Transporte", "Direccion": "C/ MACHAQUITO 5, 3º D", "Tipo_Entidad": "Cooperativa", "Nombre": "Paqueprens, s. coop. and", "Mail": null, "Telefono": null, "Clasificacion_Entidad": "SOCIEDADES COOPERATIVAS DE TRABAJO", "Distrito": "San Pablo-Santa Justa", "Ciudad": "Sevilla"}},
{"geometry": {"type": "Point", "coordinates": [-5.9658045, 37.3776674]}, "type": "Feature", "properties": {"Web": null, "CIF": "F91289454", "Actividad": "Transporte", "Direccion": "C/ JOSE ALEXANDRE, 22, CIUDAD JARDIN", "Tipo_Entidad": "Cooperativa", "Nombre": "Alua cargo, s. coop. and.", "Mail": null, "Telefono": null, "Clasificacion_Entidad": "SOCIEDADES COOPERATIVAS DE TRABAJO", "Distrito": "Nervión", "Ciudad": "Sevilla"}},
{"geometry": {"type": "Point", "coordinates": [-5.982335, 37.4267956]}, "type": "Feature", "properties": {"Web": null, "CIF": "F91097618", "Actividad": "Transporte", "Direccion": "ESTURION Nº 17  3º D", "Tipo_Entidad": "Cooperativa", "Nombre": "Mosetrans, s. coop. and.", "Mail": null, "Telefono": null, "Clasificacion_Entidad": "SOCIEDADES COOPERATIVAS DE TRABAJO", "Distrito": "Norte", "Ciudad": "Sevilla"}},
{"geometry": {"type": "Point", "coordinates": [-5.9674384, 37.394927]}, "type": "Feature", "properties": {"Web": null, "CIF": "F41856048", "Actividad": "Transporte", "Direccion": "POL. SAN PABLO C/ NARANJITO DE TRIANA BLOQUE 239 1º IZQ.", "Tipo_Entidad": "Cooperativa", "Nombre": "Codisevi, s.coop.and.", "Mail": null, "Telefono": null, "Clasificacion_Entidad": "SOCIEDADES COOPERATIVAS DE TRABAJO", "Distrito": "Macarena", "Ciudad": "Sevilla"}},
{"geometry": {"type": "Point", "coordinates": [-5.9941347, 37.396769]}, "type": "Feature", "properties": {"Web": null, "CIF": "F90018029", "Actividad": "Transporte", "Direccion": "ALAMEDA DE HERCULES", "Tipo_Entidad": "Cooperativa", "Nombre": "Veloces s. coop. and.", "Mail": null, "Telefono": null, "Clasificacion_Entidad": "SOCIEDADES COOPERATIVAS DE TRABAJO", "Distrito": "Casco Antiguo", "Ciudad": "Sevilla"}},
{"geometry": {"type": "Point", "coordinates": [-6.001056500000001, 37.3959412]}, "type": "Feature", "properties": {"Web": null, "CIF": "F91422261", "Actividad": "Industrial/artesanal", "Direccion": "GOLES Nº 48 A  INTERIOR", "Tipo_Entidad": "Cooperativa", "Nombre": "Artesania del dorado hermanos gonzalez, s. coop. and.", "Mail": null, "Telefono": null, "Clasificacion_Entidad": "SOCIEDADES COOPERATIVAS DE TRABAJO", "Distrito": "Casco Antiguo", "Ciudad": "Sevilla"}},
{"geometry": {"type": "Point", "coordinates": [-5.984198399999999, 37.4033682]}, "type": "Feature", "properties": {"Web": null, "CIF": "F41967910", "Actividad": "Transporte", "Direccion": "DIONISIO ALCALÁ GALIANO, 19-LOCAL", "Tipo_Entidad": "Cooperativa", "Nombre": "S v q mensajeros, s.coop.and.", "Mail": null, "Telefono": null, "Clasificacion_Entidad": "SOCIEDADES COOPERATIVAS DE TRABAJO", "Distrito": "Macarena", "Ciudad": "Sevilla"}},
{"geometry": {"type": "Point", "coordinates": [-5.99737, 37.39503]}, "type": "Feature", "properties": {"Web": null, "CIF": "F90067539", "Actividad": "Transporte", "Direccion": "BAÑOS", "Tipo_Entidad": "Cooperativa", "Nombre": "Traspedal s.coop.and.", "Mail": null, "Telefono": null, "Clasificacion_Entidad": "SOCIEDADES COOPERATIVAS DE TRABAJO", "Distrito": "Casco Antiguo", "Ciudad": "Sevilla"}},
{"geometry": {"type": "Point", "coordinates": [-5.99737, 37.39503]}, "type": "Feature", "properties": {"Web": null, "CIF": null, "Actividad": "Transporte", "Direccion": "BAÑOS", "Tipo_Entidad": "Cooperativa", "Nombre": "Muloco s. coop. and.", "Mail": null, "Telefono": null, "Clasificacion_Entidad": "SOCIEDADES COOPERATIVAS DE TRABAJO", "Distrito": "Casco Antiguo", "Ciudad": "Sevilla"}},
{"geometry": {"type": "Point", "coordinates": [-5.9941347, 37.396769]}, "type": "Feature", "properties": {"Web": null, "CIF": "F90024092", "Actividad": "Hosteleria", "Direccion": "DE HERCULES", "Tipo_Entidad": "Cooperativa", "Nombre": "Inversiones turisticas xxi ( intur xxi)  s. coop. and.", "Mail": null, "Telefono": null, "Clasificacion_Entidad": "SOCIEDADES COOPERATIVAS DE TRABAJO", "Distrito": "Casco Antiguo", "Ciudad": "Sevilla"}},
{"geometry": {"type": "Point", "coordinates": [-5.99737, 37.39503]}, "type": "Feature", "properties": {"Web": null, "CIF": null, "Actividad": "Hosteleria", "Direccion": "BAÑOS", "Tipo_Entidad": "Cooperativa", "Nombre": "Muloco s. coop. and.", "Mail": null, "Telefono": null, "Clasificacion_Entidad": "SOCIEDADES COOPERATIVAS DE TRABAJO", "Distrito": "Casco Antiguo", "Ciudad": "Sevilla"}},
{"geometry": {"type": "Point", "coordinates": [-5.979727599999999, 37.3860289]}, "type": "Feature", "properties": {"Web": null, "CIF": "F90265679", "Actividad": "Hosteleria", "Direccion": "TROVADOR", "Tipo_Entidad": "Cooperativa", "Nombre": "Odinade, s.coop.and", "Mail": null, "Telefono": null, "Clasificacion_Entidad": "SOCIEDADES COOPERATIVAS DE TRABAJO", "Distrito": "Nervión", "Ciudad": "Sevilla"}},
{"geometry": {"type": "Point", "coordinates": [-5.971499, 37.4224221]}, "type": "Feature", "properties": {"Web": null, "CIF": null, "Actividad": "Hosteleria", "Direccion": "ESTRELLA CANOPUS", "Tipo_Entidad": "Cooperativa", "Nombre": "Espacio nature, s.coop.and", "Mail": null, "Telefono": null, "Clasificacion_Entidad": "SOCIEDADES COOPERATIVAS DE TRABAJO", "Distrito": "Norte", "Ciudad": "Sevilla"}},
{"geometry": {"type": "Point", "coordinates": [-5.994041999999999, 37.4003968]}, "type": "Feature", "properties": {"Web": null, "CIF": "F90140393", "Actividad": "Hosteleria", "Direccion": "LUMBRERAS", "Tipo_Entidad": "Cooperativa", "Nombre": "Teresa mañé, s. coop. and.", "Mail": null, "Telefono": null, "Clasificacion_Entidad": "SOCIEDADES COOPERATIVAS DE TRABAJO", "Distrito": "Casco Antiguo", "Ciudad": "Sevilla"}},
{"geometry": {"type": "Point", "coordinates": [-5.9968623, 37.39774140000001]}, "type": "Feature", "properties": {"Web": null, "CIF": null, "Actividad": "Hosteleria", "Direccion": "Santa Clara", "Tipo_Entidad": "Cooperativa", "Nombre": "Souza y durán, s.coop.and", "Mail": null, "Telefono": null, "Clasificacion_Entidad": "SOCIEDADES COOPERATIVAS DE TRABAJO", "Distrito": "Casco Antiguo", "Ciudad": "Sevilla"}},
{"geometry": {"type": "Point", "coordinates": [-5.977539, 37.3480722]}, "type": "Feature", "properties": {"Web": null, "CIF": "F91334615", "Actividad": "Industrial/artesanal", "Direccion": "LYON, 2, PORTAL 1, BAJO A", "Tipo_Entidad": "Cooperativa", "Nombre": "La mota ediciones, sociedad cooperativa andaluza", "Mail": null, "Telefono": null, "Clasificacion_Entidad": "SOCIEDADES COOPERATIVAS DE TRABAJO", "Distrito": "Bellavista-La Palmera", "Ciudad": "Sevilla"}},
{"geometry": {"type": "Point", "coordinates": [-5.9243421, 37.4068511]}, "type": "Feature", "properties": {"Web": null, "CIF": "F90199530", "Actividad": "Hosteleria", "Direccion": "BIB RAMBLA", "Tipo_Entidad": "Cooperativa", "Nombre": "La monella sca", "Mail": null, "Telefono": null, "Clasificacion_Entidad": "SOCIEDADES COOPERATIVAS DE TRABAJO", "Distrito": "Este", "Ciudad": "Sevilla"}},
{"geometry": {"type": "Point", "coordinates": [-5.99417, 37.40143]}, "type": "Feature", "properties": {"Web": null, "CIF": null, "Actividad": "Hosteleria", "Direccion": "CALATRAVA", "Tipo_Entidad": "Cooperativa", "Nombre": "Prima aureola, s.coop.and", "Mail": null, "Telefono": null, "Clasificacion_Entidad": "SOCIEDADES COOPERATIVAS DE TRABAJO", "Distrito": "Casco Antiguo", "Ciudad": "Sevilla"}},
{"geometry": {"type": "Point", "coordinates": [-5.9348274, 37.3744142]}, "type": "Feature", "properties": {"Web": null, "CIF": null, "Actividad": "Hosteleria", "Direccion": "DILAR, 27", "Tipo_Entidad": "Cooperativa", "Nombre": "El sinchuelo, s. coop. and.", "Mail": null, "Telefono": null, "Clasificacion_Entidad": "SOCIEDADES COOPERATIVAS DE TRABAJO", "Distrito": "Cerro-Amate", "Ciudad": "Sevilla"}},
{"geometry": {"type": "Point", "coordinates": [-5.986989899999999, 37.38291]}, "type": "Feature", "properties": {"Web": null, "CIF": "F90110172", "Actividad": "Hosteleria", "Direccion": "DE CADIZ", "Tipo_Entidad": "Cooperativa", "Nombre": "Alpefechi s.coop.and.", "Mail": null, "Telefono": null, "Clasificacion_Entidad": "SOCIEDADES COOPERATIVAS DE TRABAJO", "Distrito": "Casco Antiguo", "Ciudad": "Sevilla"}},
{"geometry": {"type": "Point", "coordinates": [-5.956082599999999, 37.4343634]}, "type": "Feature", "properties": {"Web": null, "CIF": "F91895417", "Actividad": "Hosteleria", "Direccion": "CAMINO DE LA REINA, 136", "Tipo_Entidad": "Cooperativa", "Nombre": "El lago de paco, s.coop.and.", "Mail": null, "Telefono": null, "Clasificacion_Entidad": "SOCIEDADES COOPERATIVAS DE TRABAJO", "Distrito": "Norte", "Ciudad": "Sevilla"}},
{"geometry": {"type": "Point", "coordinates": [-5.9625863, 37.3723692]}, "type": "Feature", "properties": {"Web": null, "CIF": "F91030308", "Actividad": "Hosteleria", "Direccion": "AVDA. HYTASA, 23  3º C", "Tipo_Entidad": "Cooperativa", "Nombre": "Lacasur, s. coop. and.", "Mail": null, "Telefono": null, "Clasificacion_Entidad": "SOCIEDADES COOPERATIVAS DE TRABAJO", "Distrito": "Cerro-Amate", "Ciudad": "Sevilla"}},
{"geometry": {"type": "Point", "coordinates": [-5.9437029, 37.3993565]}, "type": "Feature", "properties": {"Web": null, "CIF": "F91328088", "Actividad": "Hosteleria", "Direccion": "C/ CUEVA DE MENGA Nº 3, BLOQUE 12, 1º C", "Tipo_Entidad": "Cooperativa", "Nombre": "Fatoel, s. coop. and.", "Mail": null, "Telefono": null, "Clasificacion_Entidad": "SOCIEDADES COOPERATIVAS DE TRABAJO", "Distrito": "Este", "Ciudad": "Sevilla"}},
{"geometry": {"type": "Point", "coordinates": [-5.997814099999999, 37.3968396]}, "type": "Feature", "properties": {"Web": null, "CIF": "F91333138", "Actividad": "Hosteleria", "Direccion": "TEODOSIO, 29, 1º A", "Tipo_Entidad": "Cooperativa", "Nombre": "Sociedad cooperativa andaluza femor", "Mail": null, "Telefono": null, "Clasificacion_Entidad": "SOCIEDADES COOPERATIVAS DE TRABAJO", "Distrito": "Casco Antiguo", "Ciudad": "Sevilla"}},
{"geometry": {"type": "Point", "coordinates": [-5.9670301, 37.420939]}, "type": "Feature", "properties": {"Web": null, "CIF": "F91363747", "Actividad": "Hosteleria", "Direccion": "CALLE BORDADORAS Nº 6, 4º B", "Tipo_Entidad": "Cooperativa", "Nombre": "Los flamencos de mi calle, s. coop. and.", "Mail": null, "Telefono": null, "Clasificacion_Entidad": "SOCIEDADES COOPERATIVAS DE TRABAJO", "Distrito": "Macarena", "Ciudad": "Sevilla"}},
{"geometry": {"type": "Point", "coordinates": [-5.9995283, 37.3885258]}, "type": "Feature", "properties": {"Web": null, "CIF": "F41078395", "Actividad": "Industrial/artesanal", "Direccion": "ALMANSA, 7", "Tipo_Entidad": "Cooperativa", "Nombre": "Graficas san antonio, sociedad cooperativa andaluza", "Mail": null, "Telefono": null, "Clasificacion_Entidad": "SOCIEDADES COOPERATIVAS DE TRABAJO", "Distrito": "Este", "Ciudad": "Sevilla"}},
{"geometry": {"type": "Point", "coordinates": [-5.94343, 37.39439]}, "type": "Feature", "properties": {"Web": null, "CIF": "F91303750", "Actividad": "Hosteleria", "Direccion": "C/ PADRE JOSE SEBASTIAN BANDARAN, ZONA 7, BL.259, BAJO A", "Tipo_Entidad": "Cooperativa", "Nombre": "Cafe - bar pizzeria tiziano, s. coop. and.", "Mail": null, "Telefono": null, "Clasificacion_Entidad": "SOCIEDADES COOPERATIVAS DE TRABAJO", "Distrito": "Polígono Sur", "Ciudad": "Sevilla"}},
{"geometry": {"type": "Point", "coordinates": [-5.9709398, 37.38153820000001]}, "type": "Feature", "properties": {"Web": null, "CIF": "F91280669", "Actividad": "Hosteleria", "Direccion": "C/ MANUEL CASANA 16, 3º DCHA.", "Tipo_Entidad": "Cooperativa", "Nombre": "Control y direccion de servicios gastronomicos, s. coop. and.", "Mail": null, "Telefono": null, "Clasificacion_Entidad": "SOCIEDADES COOPERATIVAS DE TRABAJO", "Distrito": "Nervión", "Ciudad": "Sevilla"}},
{"geometry": {"type": "Point", "coordinates": [-6.011141599999999, 37.3832403]}, "type": "Feature", "properties": {"Web": null, "CIF": "F91275107", "Actividad": "Hosteleria", "Direccion": "C/ JUAN DE PINEDA, 126", "Tipo_Entidad": "Cooperativa", "Nombre": "Familia huertas, sociedad cooperativa andaluza", "Mail": null, "Telefono": null, "Clasificacion_Entidad": "SOCIEDADES COOPERATIVAS DE TRABAJO", "Distrito": "Triana", "Ciudad": "Sevilla"}},
{"geometry": {"type": "Point", "coordinates": [-5.9956796, 37.3967793]}, "type": "Feature", "properties": {"Web": null, "CIF": null, "Actividad": "Hosteleria", "Direccion": "C/ CONDE DE BARAJAS Nº20", "Tipo_Entidad": "Cooperativa", "Nombre": "Novahostec, s.coop.and.", "Mail": null, "Telefono": null, "Clasificacion_Entidad": "SOCIEDADES COOPERATIVAS DE TRABAJO", "Distrito": "Casco Antiguo", "Ciudad": "Sevilla"}},
{"geometry": {"type": "Point", "coordinates": [-5.9655245, 37.3878141]}, "type": "Feature", "properties": {"Web": null, "CIF": null, "Actividad": "Hosteleria", "Direccion": "C/ PEDRO DE LEÓN Nº 5, 2º DCHA.", "Tipo_Entidad": "Cooperativa", "Nombre": "Canroas, s.coop.and.", "Mail": null, "Telefono": null, "Clasificacion_Entidad": "SOCIEDADES COOPERATIVAS DE TRABAJO", "Distrito": "Cerro-Amate", "Ciudad": "Sevilla"}},
{"geometry": {"type": "Point", "coordinates": [-5.982857999999999, 37.4226149]}, "type": "Feature", "properties": {"Web": null, "CIF": "F91188508", "Actividad": "Hosteleria", "Direccion": "CALLE MEDINA Y GALNARES Nº19", "Tipo_Entidad": "Cooperativa", "Nombre": "Restaurante la tia pilar, s. coop. and.", "Mail": null, "Telefono": null, "Clasificacion_Entidad": "SOCIEDADES COOPERATIVAS DE TRABAJO", "Distrito": "Norte", "Ciudad": "Sevilla"}},
{"geometry": {"type": "Point", "coordinates": [-5.964346, 37.417094]}, "type": "Feature", "properties": {"Web": null, "CIF": "F91012005", "Actividad": "Hosteleria", "Direccion": "PARQUEFLORES. 4ª FASE. LOCAL 13-14", "Tipo_Entidad": "Cooperativa", "Nombre": "Cerveceria rocio , mi niña , s. coop. and.", "Mail": null, "Telefono": null, "Clasificacion_Entidad": "SOCIEDADES COOPERATIVAS DE TRABAJO", "Distrito": "Macarena", "Ciudad": "Sevilla"}},
{"geometry": {"type": "Point", "coordinates": [-6.0003532, 37.3898385]}, "type": "Feature", "properties": {"Web": null, "CIF": "F91048272", "Actividad": "Hosteleria", "Direccion": "JULIO CESAR Nº 10", "Tipo_Entidad": "Cooperativa", "Nombre": "Mavian, s. coop. and.", "Mail": null, "Telefono": null, "Clasificacion_Entidad": "SOCIEDADES COOPERATIVAS DE TRABAJO", "Distrito": "Casco Antiguo", "Ciudad": "Sevilla"}},
{"geometry": {"type": "Point", "coordinates": [-5.9877021, 37.4086682]}, "type": "Feature", "properties": {"Web": null, "CIF": "F91039289", "Actividad": "Hosteleria", "Direccion": "AVDA. SANCHEZ PIZJUAN, 12", "Tipo_Entidad": "Cooperativa", "Nombre": "Wadi- al-kabir, s. coop. and.", "Mail": null, "Telefono": null, "Clasificacion_Entidad": "SOCIEDADES COOPERATIVAS DE TRABAJO", "Distrito": "Macarena", "Ciudad": "Sevilla"}},
{"geometry": {"type": "Point", "coordinates": [-5.993394599999999, 37.3989437]}, "type": "Feature", "properties": {"Web": null, "CIF": null, "Actividad": "Industrial/artesanal", "Direccion": "ALAMEDA DE HERCULES, 32.33. 1º", "Tipo_Entidad": "Cooperativa", "Nombre": "Innovarotulo, s. coop. and.", "Mail": null, "Telefono": null, "Clasificacion_Entidad": "SOCIEDADES COOPERATIVAS DE TRABAJO", "Distrito": "Casco Antiguo", "Ciudad": "Sevilla"}},
{"geometry": {"type": "Point", "coordinates": [-5.9725554, 37.4090877]}, "type": "Feature", "properties": {"Web": null, "CIF": "F91013003", "Actividad": "Hosteleria", "Direccion": "AV. PINO MONTANO, 118 BQ.20; 4ºC", "Tipo_Entidad": "Cooperativa", "Nombre": "Cafeteria el caballo, s. coop. and.", "Mail": null, "Telefono": null, "Clasificacion_Entidad": "SOCIEDADES COOPERATIVAS DE TRABAJO", "Distrito": "Casco Antiguo", "Ciudad": "Sevilla"}},
{"geometry": {"type": "Point", "coordinates": [-5.99473, 37.40352]},